~VERSION INFORMATION
#
#File created by GEO-data Geological Wellsite Services GmbH.
#Parts or all of this file may be confidential.
#
# This is a "LAS" file containing logging data in ascii form.
#
 VERS.        2.0             :CWLS LOG ASCII STANDARD - VERSION 2.0
 WRAP.        NO              :Single line per depth step
~WELL INFORMATION
#MNEM.UNIT        DATA              DESCRIPTION OF MNEMONIC
#---------    -------------         ------------------------
 STRT.M       0.20            :Start DEPTH
 STOP.M       3038.00         :End DEPTH
 STEP.M       0.20            :DEPTH step
 NULL.        -999.25         :NULL VALUE
 COMP.        CLG             :COMPANY
 WELL.        Cal-GT-04       :WELL
 FLD .        Californie      :FIELD
 LOC .        Californie      :LOCATION
 PROV.        <no data>       :PROVINCE
 CNTY.        <no data>       :COUNTY
 STAT.        Niederlande     :STATE
 CTRY.        Niederlande     :COUNTRY
 SRVC.        GEO-data        :SERVICE COMPANY
 DATE.        08.02.2016      :DATE
 UWI .        {ADF187BD-5224-4002-B869-0B87FE3BAB56}:UNIQUE WELL ID
 API .        <no data>       :API NUMBER
 LBEG.        No ID entered   :(LBEG) well code
~CURVE INFORMATION
#MNEM.UNIT      API CODE      CURVE DESCRIPTION
#---------    -------------   ------------------------------
 DEPTH.M                      :depth
 ROP_2DM.MINPERM              :rop_2dm
 GAMMARAY_1.API               :gammaray_1
 GAMMARAY_2.API               :gammaray_2
 GAMMARAY_3.API               :gammaray_3
 CLOCKDATE.                   :Date/Time
 SPECIFICENERGY.KPSI          :specificenergy
 C1_HIRES.VOLPERCENT          :c1_hires
 C2_HIRES.VOLPERCENT          :c2_hires
 C3_HIRES.VOLPERCENT          :c3_hires
 NC4_HIRES.VOLPERCENT         :nc4_hires
 IC4_HIRES.VOLPERCENT         :ic4_hires
 NC5_HIRES.VOLPERCENT         :nc5_hires
 IC5_HIRES.VOLPERCENT         :ic5_hires
 MSE .KBAR                    :mse
 CTOTAL_HIRES.VOLPERCENT      :ctotal_hires
~PARAMETER INFORMATION
#MNEM.UNIT        VALUE       DESCRIPTION OF MNEMONIC
#---------    -------------   ------------------------------
~OTHER INFORMATION
~ASCII Log data section
# ...
 3026.60   10.25 -999.25 -999.25 -999.25  20160119.230945   231.40    0.0000    0.0000    0.0000    0.0000    0.0000    0.0000    0.0000   43.296    0.04
 3026.80   10.25 -999.25 -999.25 -999.25  20160119.231148   230.34    0.0000    0.0000    0.0000    0.0000    0.0000    0.0000    0.0000   43.513    0.01
 3027.00   10.33 -999.25 -999.25 -999.25  20160119.231352   227.15    0.0000    0.0000    0.0000    0.0000    0.0000    0.0000    0.0000   43.920    0.01
 3027.20   10.38 -999.25 -999.25 -999.25  20160119.231555   230.89    0.0000    0.0000    0.0000    0.0000    0.0000    0.0000    0.0000   44.544    0.00
 3027.40   10.22 -999.25 -999.25 -999.25  20160119.231758   244.01    0.0000    0.0000    0.0000    0.0000    0.0000    0.0000    0.0000   44.151    0.00
 3027.60   10.09 -999.25 -999.25 -999.25  20160119.232001   236.60    0.0000    0.0000    0.0000    0.0000    0.0000    0.0000    0.0000   44.320    0.00
 3027.80   10.48 -999.25 -999.25 -999.25  20160119.232206   228.88    0.0000    0.0000    0.0000    0.0000    0.0000    0.0000    0.0000   43.905    0.00
 3028.00   10.28 -999.25 -999.25 -999.25  20160119.232409   265.37    0.0000    0.0000    0.0000    0.0000    0.0000    0.0000    0.0000   43.307    0.00
 3028.20   15.29 -999.25 -999.25 -999.25  20160119.232713   291.08    0.0000    0.0000    0.0000    0.0000    0.0000    0.0000    0.0000   42.569    0.00
 3028.40   18.87 -999.25 -999.25 -999.25  20160119.233058   438.44    0.0000    0.0000    0.0000    0.0000    0.0000    0.0000    0.0000   46.170    0.00
 3028.60   13.91 -999.25 -999.25 -999.25  20160119.233346   523.45    0.0000    0.0000    0.0000    0.0000    0.0000    0.0000    0.0000   54.244    0.00
 3028.80   11.58 -999.25 -999.25 -999.25  20160119.233605   377.54    0.0000    0.0000    0.0000    0.0000    0.0000    0.0000    0.0000   57.897    0.00
 3029.00   16.17 -999.25 -999.25 -999.25  20160119.233919   328.39    0.0000    0.0000    0.0000    0.0000    0.0000    0.0000    0.0000   58.400    0.00
 3029.20   19.42 -999.25 -999.25 -999.25  20160119.234312   464.91    0.0000    0.0000    0.0000    0.0000    0.0000    0.0000    0.0000   63.529    0.00
 3029.40   10.67 -999.25 -999.25 -999.25  20160119.234520   518.24    0.0000    0.0000    0.0000    0.0000    0.0000    0.0000    0.0000   67.478    0.00
 3029.60   11.67 -999.25 -999.25 -999.25  20160119.234740   290.37    0.0000    0.0000    0.0000    0.0000    0.0000    0.0000    0.0000   59.690    0.00
 3029.80   13.25 -999.25 -999.25 -999.25  20160119.235019   323.14    0.0000    0.0000    0.0000    0.0000    0.0000    0.0000    0.0000   57.826    0.00
 3030.00   12.57 -999.25 -999.25 -999.25  20160119.235248   363.19    0.0000    0.0000    0.0000    0.0000    0.0000    0.0000    0.0000   58.834    0.00
 3030.20    9.96 -999.25 -999.25 -999.25  20160119.235449   332.92    0.0000    0.0000    0.0000    0.0000    0.0000    0.0000    0.0000   56.676    0.00
 3030.40    9.67 -999.25 -999.25 -999.25  20160119.235645   262.98    0.0000    0.0000    0.0000    0.0000    0.0000    0.0000    0.0000   48.943    0.00
 3030.60    9.59 -999.25 -999.25 -999.25  20160119.235839   254.94    0.0000    0.0000    0.0000    0.0000    0.0000    0.0000    0.0000   48.536    0.00
 3030.80    8.59 -999.25 -999.25 -999.25  20160120.000023   246.93    0.0000    0.0000    0.0000    0.0000    0.0000    0.0000    0.0000   46.878    0.00
 3031.00   10.42 -999.25 -999.25 -999.25  20160120.000228   229.99    0.0000    0.0000    0.0000    0.0000    0.0000    0.0000    0.0000   42.602    0.00
 3031.20   10.92 -999.25 -999.25 -999.25  20160120.000439   280.84    0.0000    0.0000    0.0000    0.0000    0.0000    0.0000    0.0000   40.459    0.00
 3031.40   11.25 -999.25 -999.25 -999.25  20160120.000654   295.33    0.0000    0.0000    0.0000    0.0000    0.0000    0.0000    0.0000   40.872    0.00
 3031.60   11.67 -999.25 -999.25 -999.25  20160120.000914   305.04    0.0000    0.0000    0.0000    0.0000    0.0000    0.0000    0.0000   42.420    0.00
 3031.80   10.58 -999.25 -999.25 -999.25  20160120.001121   311.69    0.0000    0.0000    0.0000    0.0000    0.0000    0.0000    0.0000   44.233    0.00
 3032.00   11.45 -999.25 -999.25 -999.25  20160120.001338   286.69    0.0000    0.0000    0.0000    0.0000    0.0000    0.0000    0.0000   46.025    0.00
 3032.20   10.55 -999.25 -999.25 -999.25  20160120.001545   305.73    0.0000    0.0000    0.0000    0.0000    0.0000    0.0000    0.0000   47.324    0.00
 3032.40    9.50 -999.25 -999.25 -999.25  20160120.001739   276.57    0.0000    0.0000    0.0000    0.0000    0.0000    0.0000    0.0000   47.108    0.00
 3032.60    9.92 -999.25 -999.25 -999.25  20160120.001938   251.68    0.0000    0.0000    0.0000    0.0000    0.0000    0.0000    0.0000   45.359    0.00
 3032.80    9.92 -999.25 -999.25 -999.25  20160120.002137   262.17    0.0000    0.0000    0.0000    0.0000    0.0000    0.0000    0.0000   43.785    0.00
 3033.00   10.17 -999.25 -999.25 -999.25  20160120.002339   263.42    0.0000    0.0000    0.0000    0.0000    0.0000    0.0000    0.0000   43.335    0.00
 3033.20    9.42 -999.25 -999.25 -999.25  20160120.002532   266.06    0.0000    0.0000    0.0000    0.0000    0.0000    0.0000    0.0000   42.876    0.00
 3033.40   10.04 -999.25 -999.25 -999.25  20160120.002731   249.74    0.0000    0.0000    0.0000    0.0000    0.0000    0.0000    0.0000   41.822    0.00
 3033.60   11.19 -999.25 -999.25 -999.25  20160120.002947   271.50    0.0000    0.0000    0.0000    0.0000    0.0000    0.0000    0.0000   41.963    0.00
 3033.80   11.58 -999.25 -999.25 -999.25  20160120.003206   303.61    0.0000    0.0000    0.0000    0.0000    0.0000    0.0000    0.0000   42.755    0.00
 3034.00   11.58 -999.25 -999.25 -999.25  20160120.003425   313.62    0.0000    0.0000    0.0000    0.0000    0.0000    0.0000    0.0000   44.252    0.00
 3034.20   10.74 -999.25 -999.25 -999.25  20160120.003633   310.11    0.0000    0.0000    0.0000    0.0000    0.0000    0.0000    0.0000   45.832    0.00
 3034.40   11.93 -999.25 -999.25 -999.25  20160120.003919   301.17    0.0000    0.0000    0.0000    0.0000    0.0000    0.0000    0.0000   46.309    0.00
 3034.60   13.28 -999.25 -999.25 -999.25  20160120.004231   330.98    0.0000    0.0000    0.0000    0.0000    0.0000    0.0000    0.0000   48.037    0.00
 3034.80   10.75 -999.25 -999.25 -999.25  20160120.004438   354.60    0.0000    0.0000    0.0000    0.0000    0.0000    0.0000    0.0000   50.625    0.00
 3035.00   10.24 -999.25 -999.25 -999.25  20160120.004642   286.18    0.0000    0.0000    0.0000    0.0000    0.0000    0.0000    0.0000   49.955    0.00
 3035.20   14.90 -999.25 -999.25 -999.25  20160120.004942   287.30    0.0000    0.0000    0.0000    0.0000    0.0000    0.0000    0.0000   47.859    0.00
 3035.40   17.00 -999.25 -999.25 -999.25  20160120.005306   422.45    0.0000    0.0000    0.0000    0.0000    0.0000    0.0000    0.0000   51.449    0.00
 3035.60   14.75 -999.25 -999.25 -999.25  20160120.005603   474.03    0.0000    0.0000    0.0000    0.0000    0.0000    0.0000    0.0000   55.742    0.00
 3035.80   14.17 -999.25 -999.25 -999.25  20160120.005853   410.14    0.0000    0.0000    0.0000    0.0000    0.0000    0.0000    0.0000   57.132    0.00
 3036.00   11.45 -999.25 -999.25 -999.25  20160120.010110   382.48    0.0000    0.0000    0.0000    0.0000    0.0000    0.0000    0.0000   60.646    0.01
 3036.20   11.05 -999.25 -999.25 -999.25  20160120.010323   308.23    0.0000    0.0000    0.0000    0.0000    0.0000    0.0000    0.0000   61.955    0.01
 3036.40   19.83 -999.25 -999.25 -999.25  20160120.010721   318.58    0.0000    0.0000    0.0000    0.0000    0.0000    0.0000    0.0000   58.056    0.01
 3036.60   48.61 -999.25 -999.25 -999.25  20160120.015905   565.86    0.0000    0.0000    0.0000    0.0000    0.0000    0.0000    0.0000   58.239    0.02
 3036.80   33.35 -999.25 -999.25 -999.25  20160120.020549  1047.76    0.0000    0.0000    0.0000    0.0000    0.0000    0.0000    0.0000   91.660    0.02
