~VERSION INFORMATION
#
#File created by GEO-data Geological Wellsite Services GmbH.
#Parts or all of this file may be confidential.
#
# This is a "LAS" file containing logging data in ascii form.
#
 VERS.        2.0             :CWLS LOG ASCII STANDARD - VERSION 2.0
 WRAP.        NO              :Single line per depth step
~WELL INFORMATION
#MNEM.UNIT        DATA              DESCRIPTION OF MNEMONIC
#---------    -------------         ------------------------
 STRT.M       0.20            :Start DEPTH
 STOP.M       3038.00         :End DEPTH
 STEP.M       0.20            :DEPTH step
 NULL.        -999.25         :NULL VALUE
 COMP.        CLG             :COMPANY
 WELL.        Cal-GT-04       :WELL
 FLD .        Californie      :FIELD
 LOC .        Californie      :LOCATION
 PROV.        <no data>       :PROVINCE
 CNTY.        <no data>       :COUNTY
 STAT.        Niederlande     :STATE
 CTRY.        Niederlande     :COUNTRY
 SRVC.        GEO-data        :SERVICE COMPANY
 DATE.        08.02.2016      :DATE
 UWI .        {ADF187BD-5224-4002-B869-0B87FE3BAB56}:UNIQUE WELL ID
 API .        <no data>       :API NUMBER
 LBEG.        No ID entered   :(LBEG) well code
~CURVE INFORMATION
#MNEM.UNIT      API CODE      CURVE DESCRIPTION
#---------    -------------   ------------------------------
 DEPTH.M                      :depth
 ROP_2DM.MINPERM              :rop_2dm
 GAMMARAY_1.API               :gammaray_1
 GAMMARAY_2.API               :gammaray_2
 GAMMARAY_3.API               :gammaray_3
 CLOCKDATE.                   :Date/Time
 SPECIFICENERGY.KPSI          :specificenergy
 C1_HIRES.VOLPERCENT          :c1_hires
 C2_HIRES.VOLPERCENT          :c2_hires
 C3_HIRES.VOLPERCENT          :c3_hires
 NC4_HIRES.VOLPERCENT         :nc4_hires
 IC4_HIRES.VOLPERCENT         :ic4_hires
 NC5_HIRES.VOLPERCENT         :nc5_hires
 IC5_HIRES.VOLPERCENT         :ic5_hires
 MSE .KBAR                    :mse
 CTOTAL_HIRES.VOLPERCENT      :ctotal_hires
~PARAMETER INFORMATION
#MNEM.UNIT        VALUE       DESCRIPTION OF MNEMONIC
#---------    -------------   ------------------------------
~OTHER INFORMATION
~ASCII Log data section
# ...
 1331.40    5.42  113.59 -999.25 -999.25  20151212.175906    30.99    0.0000    0.0000    0.0000    0.0000    0.0000    0.0000    0.0000    2.001    0.00
 1331.60    5.50  109.46 -999.25 -999.25  20151212.180012    28.75    0.0000    0.0000    0.0000    0.0000    0.0000    0.0000    0.0000    1.956    0.00
 1331.80    5.17  115.66 -999.25 -999.25  20151212.180114    24.86    0.0000    0.0000    0.0000    0.0000    0.0000    0.0000    0.0000    1.882    0.00
 1332.00    3.58  109.46 -999.25 -999.25  20151212.180157    33.46    0.0000    0.0000    0.0000    0.0000    0.0000    0.0000    0.0000    2.171    0.00
 1332.20    3.42 -999.25 -999.25 -999.25  20151212.180238    26.91    0.0000    0.0000    0.0000    0.0000    0.0000    0.0000    0.0000    2.400    0.00
 1332.40    3.42  105.33 -999.25 -999.25  20151212.180319    27.41    0.0000    0.0000    0.0000    0.0000    0.0000    0.0000    0.0000    2.230    0.00
 1332.60    4.42   95.00 -999.25 -999.25  20151212.180412    31.45    0.0000    0.0000    0.0000    0.0000    0.0000    0.0000    0.0000    2.053    0.00
 1332.80    6.25  105.33 -999.25 -999.25  20151212.180527    36.61    0.0000    0.0000    0.0000    0.0000    0.0000    0.0000    0.0000    1.856    0.00
 1333.00    6.33  101.20 -999.25 -999.25  20151212.180643    38.14    0.0000    0.0000    0.0000    0.0000    0.0000    0.0000    0.0000    1.741    0.00
 1333.20   12.67  109.46 -999.25 -999.25  20151212.181154    35.91    0.0000    0.0000    0.0000    0.0000    0.0000    0.0000    0.0000    1.777    0.00
 1333.40    8.92  109.46 -999.25 -999.25  20151212.181341    64.58    0.0000    0.0000    0.0000    0.0000    0.0000    0.0000    0.0000    2.481    0.00
 1333.60    5.58  117.72 -999.25 -999.25  20151212.181448    41.58    0.0000    0.0000    0.0000    0.0000    0.0000    0.0000    0.0000    2.927    0.00
 1333.80    6.58  109.46 -999.25 -999.25  20151212.181607    41.21    0.0000    0.0000    0.0000    0.0000    0.0000    0.0000    0.0000    3.534    0.00
 1334.00    8.50  105.33 -999.25 -999.25  20151212.181749    42.13    0.0000    0.0000    0.0000    0.0000    0.0000    0.0000    0.0000    3.346    0.00
 1334.20   16.83  109.46 -999.25 -999.25  20151212.182111    49.08    0.0000    0.0000    0.0000    0.0000    0.0000    0.0000    0.0000    2.957    0.00
 1334.40   13.92  113.59 -999.25 -999.25  20151212.182358    90.16    0.0000    0.0000    0.0000    0.0000    0.0000    0.0000    0.0000    3.431    0.00
 1334.60    9.58  105.33 -999.25 -999.25  20151212.182553    53.42    0.0000    0.0000    0.0000    0.0000    0.0000    0.0000    0.0000    3.564    0.00
 1334.80    9.58   95.00 -999.25 -999.25  20151212.182748    46.75    0.0000    0.0000    0.0000    0.0000    0.0000    0.0000    0.0000    3.924    0.00
 1335.00    9.75   90.87 -999.25 -999.25  20151212.182945    61.47    0.0000    0.0000    0.0000    0.0000    0.0000    0.0000    0.0000    4.233    0.00
 1335.20    9.67   88.81 -999.25 -999.25  20151212.183141    70.71    0.0000    0.0000    0.0000    0.0000    0.0000    0.0000    0.0000    4.654    0.00
 1335.40    9.42  117.72 -999.25 -999.25  20151212.183334    53.47    0.0000    0.0000    0.0000    0.0000    0.0000    0.0000    0.0000    3.981    0.00
 1335.60    7.58  105.33 -999.25 -999.25  20151212.183505    41.65    0.0000    0.0000    0.0000    0.0000    0.0000    0.0000    0.0000    3.420    0.00
 1335.80    5.25  130.11 -999.25 -999.25  20151212.183608    29.80    0.0000    0.0000    0.0000    0.0000    0.0000    0.0000    0.0000    3.337    0.00
 1336.00    4.50  128.05 -999.25 -999.25  20151212.183702    22.43    0.0000    0.0000    0.0000    0.0000    0.0000    0.0000    0.0000    3.070    0.00
 1336.20    4.42  105.33 -999.25 -999.25  20151212.183755    23.85    0.0000    0.0000    0.0000    0.0000    0.0000    0.0000    0.0000    2.722    0.00
 1336.40    8.17   84.68 -999.25 -999.25  20151212.183933    33.09    0.0000    0.0000    0.0000    0.0000    0.0000    0.0000    0.0000    2.331    0.00
 1336.60   16.33 -999.25 -999.25 -999.25  20151212.184249    61.65    0.0000    0.0000    0.0000    0.0000    0.0000    0.0000    0.0000    2.109    0.00
 1336.80   19.06   95.00 -999.25 -999.25  20151212.184642   111.46    0.0000    0.0000    0.0000    0.0000    0.0000    0.0000    0.0000    2.694    0.00
 1337.00    7.98  121.85 -999.25 -999.25  20151212.184816    92.27    0.0000    0.0000    0.0000    0.0000    0.0000    0.0000    0.0000    3.965    0.00
 1337.20    4.01  134.24 -999.25 -999.25  20151212.184912    35.80    0.0000    0.0000    0.0000    0.0000    0.0000    0.0000    0.0000    4.338    0.00
 1337.40    5.47  130.11 -999.25 -999.25  20151212.185007    17.75    0.0000    0.0000    0.0000    0.0000    0.0000    0.0000    0.0000    4.326    0.00
 1337.60    4.58  140.44 -999.25 -999.25  20151212.185102    23.75    0.0000    0.0000    0.0000    0.0000    0.0000    0.0000    0.0000    3.959    0.00
 1337.80    4.67  134.24 -999.25 -999.25  20151212.185158    20.40    0.0000    0.0000    0.0000    0.0000    0.0000    0.0000    0.0000    3.010    0.00
 1338.00    5.00  136.31 -999.25 -999.25  20151212.185258    20.90    0.0000    0.0000    0.0000    0.0000    0.0000    0.0000    0.0000    1.939    0.00
 1338.20    5.25  140.44 -999.25 -999.25  20151212.185401    23.10    0.0000    0.0000    0.0000    0.0000    0.0000    0.0000    0.0000    1.726    0.00
 1338.40    5.33  121.85 -999.25 -999.25  20151212.185505    24.23    0.0000    0.0000    0.0000    0.0000    0.0000    0.0000    0.0000    1.814    0.00
 1338.60    5.25  132.18 -999.25 -999.25  20151212.185608    24.70    0.0000    0.0000    0.0000    0.0000    0.0000    0.0000    0.0000    1.797    0.00
 1338.80    5.17  119.79 -999.25 -999.25  20151212.185710    23.93    0.0000    0.0000    0.0000    0.0000    0.0000    0.0000    0.0000    1.841    0.00
 1339.00    5.00  123.92 -999.25 -999.25  20151212.185810    23.01    0.0000    0.0000    0.0000    0.0000    0.0000    0.0000    0.0000    1.851    0.00
 1339.20    5.17  125.98 -999.25 -999.25  20151212.185912    22.76    0.0000    0.0000    0.0000    0.0000    0.0000    0.0000    0.0000    1.881    0.00
 1339.40    5.33  119.79 -999.25 -999.25  20151212.190016    23.66    0.0000    0.0000    0.0000    0.0000    0.0000    0.0000    0.0000    1.831    0.00
 1339.60    5.08  140.44 -999.25 -999.25  20151212.190117    24.02    0.0000    0.0000    0.0000    0.0000    0.0000    0.0000    0.0000    1.859    0.00
 1339.80    5.17  132.18 -999.25 -999.25  20151212.190219    23.08    0.0000    0.0000    0.0000    0.0000    0.0000    0.0000    0.0000    1.871    0.00
 1340.00    5.25  132.18 -999.25 -999.25  20151212.190322    23.60    0.0000    0.0000    0.0000    0.0000    0.0000    0.0000    0.0000    1.849    0.00
 1340.20    5.17  136.31 -999.25 -999.25  20151212.190424    23.77    0.0000    0.0000    0.0000    0.0000    0.0000    0.0000    0.0000    1.833    0.00
 1340.40    5.17  130.11 -999.25 -999.25  20151212.190526    23.43    0.0000    0.0000    0.0000    0.0000    0.0000    0.0000    0.0000    1.815    0.00
 1340.60    5.25  132.18 -999.25 -999.25  20151212.190629    23.70    0.0000    0.0000    0.0000    0.0000    0.0000    0.0000    0.0000    1.827    0.00
 1340.80    5.50  117.72 -999.25 -999.25  20151212.190735    24.52    0.0000    0.0000    0.0000    0.0000    0.0000    0.0000    0.0000    1.860    0.00
 1341.00    5.17  115.66 -999.25 -999.25  20151212.190837    25.08    0.0000    0.0000    0.0000    0.0000    0.0000    0.0000    0.0000    1.907    0.00
 1341.20    5.08  130.11 -999.25 -999.25  20151212.190938    23.18    0.0000    0.0000    0.0000    0.0000    0.0000    0.0000    0.0000    1.874    0.00
 1341.40    5.33  138.37 -999.25 -999.25  20151212.191042    23.46    0.0000    0.0000    0.0000    0.0000    0.0000    0.0000    0.0000    1.849    0.00
 1341.60   14.42  128.05 -999.25 -999.25  20151212.192808    17.73    0.0000    0.0000    0.0000    0.0000    0.0000    0.0000    0.0000    1.529    0.00
