~VERSION INFORMATION
#
#File created by GEO-data Geological Wellsite Services GmbH.
#Parts or all of this file may be confidential.
#
# This is a "LAS" file containing logging data in ascii form.
#
 VERS.        2.0             :CWLS LOG ASCII STANDARD - VERSION 2.0
 WRAP.        NO              :Single line per depth step
~WELL INFORMATION
#MNEM.UNIT        DATA              DESCRIPTION OF MNEMONIC
#---------    -------------         ------------------------
 STRT.M       0.20            :Start DEPTH
 STOP.M       3038.00         :End DEPTH
 STEP.M       0.20            :DEPTH step
 NULL.        -999.25         :NULL VALUE
 COMP.        CLG             :COMPANY
 WELL.        Cal-GT-04       :WELL
 FLD .        Californie      :FIELD
 LOC .        Californie      :LOCATION
 PROV.        <no data>       :PROVINCE
 CNTY.        <no data>       :COUNTY
 STAT.        Niederlande     :STATE
 CTRY.        Niederlande     :COUNTRY
 SRVC.        GEO-data        :SERVICE COMPANY
 DATE.        08.02.2016      :DATE
 UWI .        {ADF187BD-5224-4002-B869-0B87FE3BAB56}:UNIQUE WELL ID
 API .        <no data>       :API NUMBER
 LBEG.        No ID entered   :(LBEG) well code
~CURVE INFORMATION
#MNEM.UNIT      API CODE      CURVE DESCRIPTION
#---------    -------------   ------------------------------
 DEPTH.M                      :depth
 ROP_2DM.MINPERM              :rop_2dm
 GAMMARAY_1.API               :gammaray_1
 GAMMARAY_2.API               :gammaray_2
 GAMMARAY_3.API               :gammaray_3
 CLOCKDATE.                   :Date/Time
 SPECIFICENERGY.KPSI          :specificenergy
 C1_HIRES.VOLPERCENT          :c1_hires
 C2_HIRES.VOLPERCENT          :c2_hires
 C3_HIRES.VOLPERCENT          :c3_hires
 NC4_HIRES.VOLPERCENT         :nc4_hires
 IC4_HIRES.VOLPERCENT         :ic4_hires
 NC5_HIRES.VOLPERCENT         :nc5_hires
 IC5_HIRES.VOLPERCENT         :ic5_hires
 MSE .KBAR                    :mse
 CTOTAL_HIRES.VOLPERCENT      :ctotal_hires
~PARAMETER INFORMATION
#MNEM.UNIT        VALUE       DESCRIPTION OF MNEMONIC
#---------    -------------   ------------------------------
~OTHER INFORMATION
~ASCII Log data section
# ...
  395.40    2.24 -999.25 -999.25 -999.25  20151202.184913    10.25    0.0000    0.0000    0.0000    0.0000    0.0000    0.0000    0.0000    0.117    0.00
  395.60    2.18 -999.25 -999.25 -999.25  20151202.184939    10.51    0.0000    0.0000    0.0000    0.0000    0.0000    0.0000    0.0000    0.118    0.00
  395.80    2.25 -999.25 -999.25 -999.25  20151202.185006    10.66    0.0000    0.0000    0.0000    0.0000    0.0000    0.0000    0.0000    0.122    0.00
  396.00    2.25 -999.25 -999.25 -999.25  20151202.185033    10.81    0.0000    0.0000    0.0000    0.0000    0.0000    0.0000    0.0000    0.120    0.00
  396.20    2.22 -999.25 -999.25 -999.25  20151202.185100    10.51    0.0000    0.0000    0.0000    0.0000    0.0000    0.0000    0.0000    0.120    0.00
  396.40    2.36 -999.25 -999.25 -999.25  20151202.185128    10.38    0.0000    0.0000    0.0000    0.0000    0.0000    0.0000    0.0000    0.118    0.00
  396.60    2.39 -999.25 -999.25 -999.25  20151202.185157    10.97    0.0000    0.0000    0.0000    0.0000    0.0000    0.0000    0.0000    0.121    0.00
  396.80    2.36 -999.25 -999.25 -999.25  20151202.185225    11.13    0.0000    0.0000    0.0000    0.0000    0.0000    0.0000    0.0000    0.123    0.00
  397.00    2.33 -999.25 -999.25 -999.25  20151202.185253    10.88    0.0000    0.0000    0.0000    0.0000    0.0000    0.0000    0.0000    0.124    0.00
  397.20    2.41 -999.25 -999.25 -999.25  20151202.185322    10.61    0.0000    0.0000    0.0000    0.0000    0.0000    0.0000    0.0000    0.131    0.00
  397.40    2.34 -999.25 -999.25 -999.25  20151202.185350    10.82    0.0000    0.0000    0.0000    0.0000    0.0000    0.0000    0.0000    0.133    0.00
  397.60    2.39 -999.25 -999.25 -999.25  20151202.185419    10.72    0.0000    0.0000    0.0000    0.0000    0.0000    0.0000    0.0000    0.131    0.00
  397.80    2.27 -999.25 -999.25 -999.25  20151202.185446    11.09    0.0000    0.0000    0.0000    0.0000    0.0000    0.0000    0.0000    0.133    0.00
  398.00    2.25 -999.25 -999.25 -999.25  20151202.185513    10.55    0.0000    0.0000    0.0000    0.0000    0.0000    0.0000    0.0000    0.138    0.00
  398.20    2.27 -999.25 -999.25 -999.25  20151202.185541    10.71    0.0000    0.0000    0.0000    0.0000    0.0000    0.0000    0.0000    0.142    0.00
  398.40    2.27 -999.25 -999.25 -999.25  20151202.185608    10.81    0.0000    0.0000    0.0000    0.0000    0.0000    0.0000    0.0000    0.136    0.00
  398.60    2.26 -999.25 -999.25 -999.25  20151202.185635    11.31    0.0000    0.0000    0.0000    0.0000    0.0000    0.0000    0.0000    0.148    0.00
  398.80    2.29 -999.25 -999.25 -999.25  20151202.185702    11.46    0.0000    0.0000    0.0000    0.0000    0.0000    0.0000    0.0000    0.146    0.00
  399.00    2.25 -999.25 -999.25 -999.25  20151202.185729    12.01    0.0000    0.0000    0.0000    0.0000    0.0000    0.0000    0.0000    0.152    0.00
  399.20    2.25 -999.25 -999.25 -999.25  20151202.185756    11.95    0.0000    0.0000    0.0000    0.0000    0.0000    0.0000    0.0000    0.156    0.00
  399.40    2.25 -999.25 -999.25 -999.25  20151202.185823    11.36    0.0000    0.0000    0.0000    0.0000    0.0000    0.0000    0.0000    0.147    0.00
  399.60    2.30 -999.25 -999.25 -999.25  20151202.185851    11.13    0.0000    0.0000    0.0000    0.0000    0.0000    0.0000    0.0000    0.134    0.00
  399.80    2.25 -999.25 -999.25 -999.25  20151202.185918    11.40    0.0000    0.0000    0.0000    0.0000    0.0000    0.0000    0.0000    0.132    0.00
  400.00    2.25 -999.25 -999.25 -999.25  20151202.185945    11.16    0.0000    0.0000    0.0000    0.0000    0.0000    0.0000    0.0000    0.135    0.00
  400.20    2.28 -999.25 -999.25 -999.25  20151202.190012    10.98    0.0000    0.0000    0.0000    0.0000    0.0000    0.0000    0.0000    0.137    0.00
  400.40    2.25 -999.25 -999.25 -999.25  20151202.190039    10.99    0.0000    0.0000    0.0000    0.0000    0.0000    0.0000    0.0000    0.139    0.00
  400.60    2.25 -999.25 -999.25 -999.25  20151202.190106    10.76    0.0000    0.0000    0.0000    0.0000    0.0000    0.0000    0.0000    0.139    0.00
  400.80    2.26 -999.25 -999.25 -999.25  20151202.190134    10.92    0.0000    0.0000    0.0000    0.0000    0.0000    0.0000    0.0000    0.133    0.00
  401.00    2.26 -999.25 -999.25 -999.25  20151202.190201    10.83    0.0000    0.0000    0.0000    0.0000    0.0000    0.0000    0.0000    0.129    0.00
  401.20    2.28 -999.25 -999.25 -999.25  20151202.190228    10.45    0.0000    0.0000    0.0000    0.0000    0.0000    0.0000    0.0000    0.124    0.00
  401.40    2.26 -999.25 -999.25 -999.25  20151202.190255    10.60    0.0000    0.0000    0.0000    0.0000    0.0000    0.0000    0.0000    0.124    0.00
  401.60    2.25 -999.25 -999.25 -999.25  20151202.190322    10.42    0.0000    0.0000    0.0000    0.0000    0.0000    0.0000    0.0000    0.122    0.00
  401.80    2.26 -999.25 -999.25 -999.25  20151202.190349    10.37    0.0000    0.0000    0.0000    0.0000    0.0000    0.0000    0.0000    0.123    0.00
  402.00    2.26 -999.25 -999.25 -999.25  20151202.190417    10.39    0.0000    0.0000    0.0000    0.0000    0.0000    0.0000    0.0000    0.124    0.00
  402.20    2.24 -999.25 -999.25 -999.25  20151202.190443    10.35    0.0000    0.0000    0.0000    0.0000    0.0000    0.0000    0.0000    0.123    0.00
  402.40    2.28 -999.25 -999.25 -999.25  20151202.190511    10.29    0.0000    0.0000    0.0000    0.0000    0.0000    0.0000    0.0000    0.124    0.00
  402.60    2.28 -999.25 -999.25 -999.25  20151202.190538    10.56    0.0000    0.0000    0.0000    0.0000    0.0000    0.0000    0.0000    0.124    0.00
  402.80    2.26 -999.25 -999.25 -999.25  20151202.190605    10.80    0.0000    0.0000    0.0000    0.0000    0.0000    0.0000    0.0000    0.128    0.00
  403.00    2.26 -999.25 -999.25 -999.25  20151202.190632    10.90    0.0000    0.0000    0.0000    0.0000    0.0000    0.0000    0.0000    0.132    0.00
  403.20    2.25 -999.25 -999.25 -999.25  20151202.190659    10.78    0.0000    0.0000    0.0000    0.0000    0.0000    0.0000    0.0000    0.131    0.00
  403.40    2.25 -999.25 -999.25 -999.25  20151202.190726    10.73    0.0000    0.0000    0.0000    0.0000    0.0000    0.0000    0.0000    0.130    0.00
  403.60    2.28 -999.25 -999.25 -999.25  20151202.190754    10.67    0.0000    0.0000    0.0000    0.0000    0.0000    0.0000    0.0000    0.129    0.00
  403.80    2.25 -999.25 -999.25 -999.25  20151202.190821    10.93    0.0000    0.0000    0.0000    0.0000    0.0000    0.0000    0.0000    0.135    0.00
  404.00    2.27 -999.25 -999.25 -999.25  20151202.190848    10.83    0.0000    0.0000    0.0000    0.0000    0.0000    0.0000    0.0000    0.141    0.00
  404.20    2.27 -999.25 -999.25 -999.25  20151202.190915    10.98    0.0000    0.0000    0.0000    0.0000    0.0000    0.0000    0.0000    0.141    0.00
  404.40    2.26 -999.25 -999.25 -999.25  20151202.190942    10.94    0.0000    0.0000    0.0000    0.0000    0.0000    0.0000    0.0000    0.143    0.00
  404.60    2.25 -999.25 -999.25 -999.25  20151202.191009    11.03    0.0000    0.0000    0.0000    0.0000    0.0000    0.0000    0.0000    0.141    0.00
  404.80    2.26 -999.25 -999.25 -999.25  20151202.191037    11.10    0.0000    0.0000    0.0000    0.0000    0.0000    0.0000    0.0000    0.142    0.00
  405.00    2.26 -999.25 -999.25 -999.25  20151202.191104    11.82    0.0000    0.0000    0.0000    0.0000    0.0000    0.0000    0.0000    0.149    0.00
  405.20    2.26 -999.25 -999.25 -999.25  20151202.191131    12.52    0.0000    0.0000    0.0000    0.0000    0.0000    0.0000    0.0000    0.157    0.00
  405.40    2.27 -999.25 -999.25 -999.25  20151202.191158    12.52    0.0000    0.0000    0.0000    0.0000    0.0000    0.0000    0.0000    0.156    0.00
  405.60    2.28 -999.25 -999.25 -999.25  20151202.191225    11.92    0.0000    0.0000    0.0000    0.0000    0.0000    0.0000    0.0000    0.150    0.00
