~VERSION INFORMATION
#
#File created by GEO-data Geological Wellsite Services GmbH.
#Parts or all of this file may be confidential.
#
# This is a "LAS" file containing logging data in ascii form.
#
 VERS.        2.0             :CWLS LOG ASCII STANDARD - VERSION 2.0
 WRAP.        NO              :Single line per depth step
~WELL INFORMATION
#MNEM.UNIT        DATA              DESCRIPTION OF MNEMONIC
#---------    -------------         ------------------------
 STRT.M       0.20            :Start DEPTH
 STOP.M       3038.00         :End DEPTH
 STEP.M       0.20            :DEPTH step
 NULL.        -999.25         :NULL VALUE
 COMP.        CLG             :COMPANY
 WELL.        Cal-GT-04       :WELL
 FLD .        Californie      :FIELD
 LOC .        Californie      :LOCATION
 PROV.        <no data>       :PROVINCE
 CNTY.        <no data>       :COUNTY
 STAT.        Niederlande     :STATE
 CTRY.        Niederlande     :COUNTRY
 SRVC.        GEO-data        :SERVICE COMPANY
 DATE.        08.02.2016      :DATE
 UWI .        {ADF187BD-5224-4002-B869-0B87FE3BAB56}:UNIQUE WELL ID
 API .        <no data>       :API NUMBER
 LBEG.        No ID entered   :(LBEG) well code
~CURVE INFORMATION
#MNEM.UNIT      API CODE      CURVE DESCRIPTION
#---------    -------------   ------------------------------
 DEPTH.M                      :depth
 ROP_2DM.MINPERM              :rop_2dm
 GAMMARAY_1.API               :gammaray_1
 GAMMARAY_2.API               :gammaray_2
 GAMMARAY_3.API               :gammaray_3
 CLOCKDATE.                   :Date/Time
 SPECIFICENERGY.KPSI          :specificenergy
 C1_HIRES.VOLPERCENT          :c1_hires
 C2_HIRES.VOLPERCENT          :c2_hires
 C3_HIRES.VOLPERCENT          :c3_hires
 NC4_HIRES.VOLPERCENT         :nc4_hires
 IC4_HIRES.VOLPERCENT         :ic4_hires
 NC5_HIRES.VOLPERCENT         :nc5_hires
 IC5_HIRES.VOLPERCENT         :ic5_hires
 MSE .KBAR                    :mse
 CTOTAL_HIRES.VOLPERCENT      :ctotal_hires
~PARAMETER INFORMATION
#MNEM.UNIT        VALUE       DESCRIPTION OF MNEMONIC
#---------    -------------   ------------------------------
~OTHER INFORMATION
~ASCII Log data section
# ...
  208.20    3.58 -999.25 -999.25 -999.25  20151202.050250     0.18    0.0000    0.0000    0.0000    0.0000    0.0000    0.0000    0.0000    0.029    0.00
  208.40    3.75 -999.25 -999.25 -999.25  20151202.050335     0.08    0.0000    0.0000    0.0000    0.0000    0.0000    0.0000    0.0000    0.031    0.00
  208.60    4.08 -999.25 -999.25 -999.25  20151202.050424     0.06    0.0000    0.0000    0.0000    0.0000    0.0000    0.0000    0.0000    0.026    0.00
  208.80    3.92 -999.25 -999.25 -999.25  20151202.050511     0.06    0.0000    0.0000    0.0000    0.0000    0.0000    0.0000    0.0000    0.025    0.00
  209.00    4.72 -999.25 -999.25 -999.25  20151202.052530     2.06    0.0000    0.0000    0.0000    0.0000    0.0000    0.0000    0.0000    0.025    0.00
  209.20    0.66 -999.25 -999.25 -999.25  20151202.052538     0.00    0.0000    0.0000    0.0000    0.0000    0.0000    0.0000    0.0000    0.040    0.00
  209.40    5.73 -999.25 -999.25 -999.25  20151202.052641     0.10    0.0000    0.0000    0.0000    0.0000    0.0000    0.0000    0.0000    0.036    0.00
  209.60    4.50 -999.25 -999.25 -999.25  20151202.052735     0.39    0.0000    0.0000    0.0000    0.0000    0.0000    0.0000    0.0000    0.053    0.00
  209.80    4.17 -999.25 -999.25 -999.25  20151202.052825     0.00    0.0000    0.0000    0.0000    0.0000    0.0000    0.0000    0.0000    0.049    0.00
  210.00    3.40 -999.25 -999.25 -999.25  20151202.052906     0.32    0.0000    0.0000    0.0000    0.0000    0.0000    0.0000    0.0000    0.046    0.00
  210.20    3.00 -999.25 -999.25 -999.25  20151202.052942     0.28    0.0000    0.0000    0.0000    0.0000    0.0000    0.0000    0.0000    0.048    0.00
  210.40    2.77 -999.25 -999.25 -999.25  20151202.053015     0.12    0.0000    0.0000    0.0000    0.0000    0.0000    0.0000    0.0000    0.050    0.00
  210.60    2.52 -999.25 -999.25 -999.25  20151202.053046     0.24    0.0000    0.0000    0.0000    0.0000    0.0000    0.0000    0.0000    0.045    0.00
  210.80    2.54 -999.25 -999.25 -999.25  20151202.053116     0.14    0.0000    0.0000    0.0000    0.0000    0.0000    0.0000    0.0000    0.037    0.00
  211.00    2.47 -999.25 -999.25 -999.25  20151202.053146     0.06    0.0000    0.0000    0.0000    0.0000    0.0000    0.0000    0.0000    0.031    0.00
  211.20    2.49 -999.25 -999.25 -999.25  20151202.053216     0.07    0.0000    0.0000    0.0000    0.0000    0.0000    0.0000    0.0000    0.029    0.00
  211.40    2.49 -999.25 -999.25 -999.25  20151202.053245     0.05    0.0000    0.0000    0.0000    0.0000    0.0000    0.0000    0.0000    0.028    0.00
  211.60    2.50 -999.25 -999.25 -999.25  20151202.053315     0.30    0.0000    0.0000    0.0000    0.0000    0.0000    0.0000    0.0000    0.047    0.00
  211.80    3.42 -999.25 -999.25 -999.25  20151202.053356     1.65    0.0000    0.0000    0.0000    0.0000    0.0000    0.0000    0.0000    0.072    0.00
  212.00    9.08 -999.25 -999.25 -999.25  20151202.053545     2.49    0.0000    0.0000    0.0000    0.0000    0.0000    0.0000    0.0000    0.059    0.00
  212.20    3.54 -999.25 -999.25 -999.25  20151202.053629     7.13    0.0000    0.0000    0.0000    0.0000    0.0000    0.0000    0.0000    0.103    0.00
  212.40    4.23 -999.25 -999.25 -999.25  20151202.053735     4.24    0.0000    0.0000    0.0000    0.0000    0.0000    0.0000    0.0000    0.133    0.00
  212.60    4.08 -999.25 -999.25 -999.25  20151202.053824     6.55    0.0000    0.0000    0.0000    0.0000    0.0000    0.0000    0.0000    0.190    0.00
  212.80    3.98 -999.25 -999.25 -999.25  20151202.053913     5.35    0.0000    0.0000    0.0000    0.0000    0.0000    0.0000    0.0000    0.192    0.00
  213.00    4.19 -999.25 -999.25 -999.25  20151202.054002     3.03    0.0000    0.0000    0.0000    0.0000    0.0000    0.0000    0.0000    0.161    0.00
  213.20    4.17 -999.25 -999.25 -999.25  20151202.054052     1.79    0.0000    0.0000    0.0000    0.0000    0.0000    0.0000    0.0000    0.102    0.00
  213.40    4.08 -999.25 -999.25 -999.25  20151202.054141     0.84    0.0000    0.0000    0.0000    0.0000    0.0000    0.0000    0.0000    0.072    0.00
  213.60    4.00 -999.25 -999.25 -999.25  20151202.054229     0.55    0.0000    0.0000    0.0000    0.0000    0.0000    0.0000    0.0000    0.065    0.00
  213.80    3.41 -999.25 -999.25 -999.25  20151202.054310     0.74    0.0000    0.0000    0.0000    0.0000    0.0000    0.0000    0.0000    0.067    0.00
  214.00    3.18 -999.25 -999.25 -999.25  20151202.054348     0.64    0.0000    0.0000    0.0000    0.0000    0.0000    0.0000    0.0000    0.068    0.00
  214.20    3.00 -999.25 -999.25 -999.25  20151202.054424     1.07    0.0000    0.0000    0.0000    0.0000    0.0000    0.0000    0.0000    0.069    0.00
  214.40    3.07 -999.25 -999.25 -999.25  20151202.054501     1.08    0.0000    0.0000    0.0000    0.0000    0.0000    0.0000    0.0000    0.065    0.00
  214.60    2.84 -999.25 -999.25 -999.25  20151202.054535     1.36    0.0000    0.0000    0.0000    0.0000    0.0000    0.0000    0.0000    0.064    0.00
  214.80    2.92 -999.25 -999.25 -999.25  20151202.054610     1.21    0.0000    0.0000    0.0000    0.0000    0.0000    0.0000    0.0000    0.060    0.00
  215.00    2.83 -999.25 -999.25 -999.25  20151202.054644     1.17    0.0000    0.0000    0.0000    0.0000    0.0000    0.0000    0.0000    0.057    0.00
  215.20    2.72 -999.25 -999.25 -999.25  20151202.054717     1.31    0.0000    0.0000    0.0000    0.0000    0.0000    0.0000    0.0000    0.057    0.00
  215.40    2.69 -999.25 -999.25 -999.25  20151202.054749     0.66    0.0000    0.0000    0.0000    0.0000    0.0000    0.0000    0.0000    0.049    0.00
  215.60    2.75 -999.25 -999.25 -999.25  20151202.055007     0.85    0.0000    0.0000    0.0000    0.0000    0.0000    0.0000    0.0000    0.052    0.00
  215.80    2.75 -999.25 -999.25 -999.25  20151202.055040     1.34    0.0000    0.0000    0.0000    0.0000    0.0000    0.0000    0.0000    0.058    0.00
  216.00    2.72 -999.25 -999.25 -999.25  20151202.055113     1.77    0.0000    0.0000    0.0000    0.0000    0.0000    0.0000    0.0000    0.066    0.00
  216.20    3.79 -999.25 -999.25 -999.25  20151202.055158     1.88    0.0000    0.0000    0.0000    0.0000    0.0000    0.0000    0.0000    0.068    0.00
  216.40    4.50 -999.25 -999.25 -999.25  20151202.055252     2.67    0.0000    0.0000    0.0000    0.0000    0.0000    0.0000    0.0000    0.073    0.00
  216.60    3.67 -999.25 -999.25 -999.25  20151202.055336     3.77    0.0000    0.0000    0.0000    0.0000    0.0000    0.0000    0.0000    0.086    0.00
  216.80   12.73 -999.25 -999.25 -999.25  20151202.062548     2.81    0.0000    0.0000    0.0000    0.0000    0.0000    0.0000    0.0000    0.051    0.00
  217.00    2.12 -999.25 -999.25 -999.25  20151202.062613    15.37    0.0000    0.0000    0.0000    0.0000    0.0000    0.0000    0.0000    0.157    0.00
  217.20    2.02 -999.25 -999.25 -999.25  20151202.062637     1.91    0.0000    0.0000    0.0000    0.0000    0.0000    0.0000    0.0000    0.136    0.00
  217.40    2.05 -999.25 -999.25 -999.25  20151202.062702     1.63    0.0000    0.0000    0.0000    0.0000    0.0000    0.0000    0.0000    0.105    0.00
  217.60    2.09 -999.25 -999.25 -999.25  20151202.062727     1.50    0.0000    0.0000    0.0000    0.0000    0.0000    0.0000    0.0000    0.091    0.00
  217.80    2.07 -999.25 -999.25 -999.25  20151202.062752     1.34    0.0000    0.0000    0.0000    0.0000    0.0000    0.0000    0.0000    0.081    0.00
  218.00    2.05 -999.25 -999.25 -999.25  20151202.062817     1.51    0.0000    0.0000    0.0000    0.0000    0.0000    0.0000    0.0000    0.043    0.00
  218.20    2.08 -999.25 -999.25 -999.25  20151202.062842     1.11    0.0000    0.0000    0.0000    0.0000    0.0000    0.0000    0.0000    0.043    0.00
  218.40    2.08 -999.25 -999.25 -999.25  20151202.062906     1.26    0.0000    0.0000    0.0000    0.0000    0.0000    0.0000    0.0000    0.043    0.00
