~VERSION INFORMATION
#
#File created by GEO-data Geological Wellsite Services GmbH.
#Parts or all of this file may be confidential.
#
# This is a "LAS" file containing logging data in ascii form.
#
 VERS.        2.0             :CWLS LOG ASCII STANDARD - VERSION 2.0
 WRAP.        NO              :Single line per depth step
~WELL INFORMATION
#MNEM.UNIT        DATA              DESCRIPTION OF MNEMONIC
#---------    -------------         ------------------------
 STRT.M       0.20            :Start DEPTH
 STOP.M       3038.00         :End DEPTH
 STEP.M       0.20            :DEPTH step
 NULL.        -999.25         :NULL VALUE
 COMP.        CLG             :COMPANY
 WELL.        Cal-GT-04       :WELL
 FLD .        Californie      :FIELD
 LOC .        Californie      :LOCATION
 PROV.        <no data>       :PROVINCE
 CNTY.        <no data>       :COUNTY
 STAT.        Niederlande     :STATE
 CTRY.        Niederlande     :COUNTRY
 SRVC.        GEO-data        :SERVICE COMPANY
 DATE.        08.02.2016      :DATE
 UWI .        {ADF187BD-5224-4002-B869-0B87FE3BAB56}:UNIQUE WELL ID
 API .        <no data>       :API NUMBER
 LBEG.        No ID entered   :(LBEG) well code
~CURVE INFORMATION
#MNEM.UNIT      API CODE      CURVE DESCRIPTION
#---------    -------------   ------------------------------
 DEPTH.M                      :depth
 ROP_2DM.MINPERM              :rop_2dm
 GAMMARAY_1.API               :gammaray_1
 GAMMARAY_2.API               :gammaray_2
 GAMMARAY_3.API               :gammaray_3
 CLOCKDATE.                   :Date/Time
 SPECIFICENERGY.KPSI          :specificenergy
 C1_HIRES.VOLPERCENT          :c1_hires
 C2_HIRES.VOLPERCENT          :c2_hires
 C3_HIRES.VOLPERCENT          :c3_hires
 NC4_HIRES.VOLPERCENT         :nc4_hires
 IC4_HIRES.VOLPERCENT         :ic4_hires
 NC5_HIRES.VOLPERCENT         :nc5_hires
 IC5_HIRES.VOLPERCENT         :ic5_hires
 MSE .KBAR                    :mse
 CTOTAL_HIRES.VOLPERCENT      :ctotal_hires
~PARAMETER INFORMATION
#MNEM.UNIT        VALUE       DESCRIPTION OF MNEMONIC
#---------    -------------   ------------------------------
~OTHER INFORMATION
~ASCII Log data section
# ...
  769.80    2.63 -999.25 -999.25 -999.25  20151204.033235     5.98    0.0000    0.0000    0.0000    0.0000    0.0000    0.0000    0.0000    0.098    0.00
  770.00    2.65 -999.25 -999.25 -999.25  20151204.033306     6.76    0.0000    0.0000    0.0000    0.0000    0.0000    0.0000    0.0000    0.097    0.00
  770.20    2.61 -999.25 -999.25 -999.25  20151204.033338     7.44    0.0000    0.0000    0.0000    0.0000    0.0000    0.0000    0.0000    0.098    0.00
  770.40    5.12 -999.25 -999.25 -999.25  20151204.033439    11.64    0.0000    0.0000    0.0000    0.0000    0.0000    0.0000    0.0000    0.098    0.00
  770.60   16.36 -999.25 -999.25 -999.25  20151204.033751    23.93    0.0000    0.0000    0.0000    0.0000    0.0000    0.0000    0.0000    0.116    0.00
  770.80    8.32 -999.25 -999.25 -999.25  20151204.033933    41.01    0.0000    0.0000    0.0000    0.0000    0.0000    0.0000    0.0000    0.266    0.00
  771.00    8.50 -999.25 -999.25 -999.25  20151204.034115    17.53    0.0000    0.0000    0.0000    0.0000    0.0000    0.0000    0.0000    0.557    0.00
  771.20    8.55 -999.25 -999.25 -999.25  20151204.034255    13.22    0.0000    0.0000    0.0000    0.0000    0.0000    0.0000    0.0000    0.084    0.00
  771.40    4.60 -999.25 -999.25 -999.25  20151204.034351    15.15    0.0000    0.0000    0.0000    0.0000    0.0000    0.0000    0.0000    0.013    0.00
  771.60    4.13 -999.25 -999.25 -999.25  20151204.034440     8.42    0.0000    0.0000    0.0000    0.0000    0.0000    0.0000    0.0000    0.013    0.00
  771.80    5.67 -999.25 -999.25 -999.25  20151204.034851     9.28    0.0000    0.0000    0.0000    0.0000    0.0000    0.0000    0.0000    0.083    0.00
  772.00    3.66 -999.25 -999.25 -999.25  20151204.034935    40.32    0.0000    0.0000    0.0000    0.0000    0.0000    0.0000    0.0000    0.626    0.00
  772.20    3.65 -999.25 -999.25 -999.25  20151204.035018    26.18    0.0000    0.0000    0.0000    0.0000    0.0000    0.0000    0.0000    0.557    0.00
  772.40    3.60 -999.25 -999.25 -999.25  20151204.035102    25.87    0.0000    0.0000    0.0000    0.0000    0.0000    0.0000    0.0000    0.419    0.00
  772.60    3.67 -999.25 -999.25 -999.25  20151204.035146    27.27    0.0000    0.0000    0.0000    0.0000    0.0000    0.0000    0.0000    0.437    0.00
  772.80    3.68 -999.25 -999.25 -999.25  20151204.035229    24.93    0.0000    0.0000    0.0000    0.0000    0.0000    0.0000    0.0000    0.404    0.00
  773.00   14.48 -999.25 -999.25 -999.25  20151204.042058    17.09    0.0000    0.0000    0.0000    0.0000    0.0000    0.0000    0.0000    0.207    0.00
  773.20    4.94 -999.25 -999.25 -999.25  20151204.042156    17.43    0.0000    0.0000    0.0000    0.0000    0.0000    0.0000    0.0000    0.003    0.00
  773.40    4.31 -999.25 -999.25 -999.25  20151204.042249     6.20    0.0000    0.0000    0.0000    0.0000    0.0000    0.0000    0.0000    0.007    0.00
  773.60    5.08 -999.25 -999.25 -999.25  20151204.042350    11.09    0.0000    0.0000    0.0000    0.0000    0.0000    0.0000    0.0000    0.010    0.00
  773.80    8.72 -999.25 -999.25 -999.25  20151204.042534    13.66    0.0000    0.0000    0.0000    0.0000    0.0000    0.0000    0.0000    0.011    0.00
  774.00    4.60 -999.25 -999.25 -999.25  20151204.042629    18.98    0.0000    0.0000    0.0000    0.0000    0.0000    0.0000    0.0000    0.009    0.00
  774.20   22.22 -999.25 -999.25 -999.25  20151204.043059    16.64    0.0000    0.0000    0.0000    0.0000    0.0000    0.0000    0.0000    0.008    0.00
  774.40   26.08 -999.25 -999.25 -999.25  20151204.043612    89.57    0.0000    0.0000    0.0000    0.0000    0.0000    0.0000    0.0000    0.416    0.00
  774.60   28.92 -999.25 -999.25 -999.25  20151204.044159   130.54    0.0000    0.0000    0.0000    0.0000    0.0000    0.0000    0.0000    0.771    0.00
  774.80    8.42 -999.25 -999.25 -999.25  20151204.044340    57.85    0.0000    0.0000    0.0000    0.0000    0.0000    0.0000    0.0000    1.043    0.00
  775.00   22.58 -999.25 -999.25 -999.25  20151204.044811    37.73    0.0000    0.0000    0.0000    0.0000    0.0000    0.0000    0.0000    1.041    0.00
  775.20   22.92 -999.25 -999.25 -999.25  20151204.045246   103.95    0.0000    0.0000    0.0000    0.0000    0.0000    0.0000    0.0000    1.249    0.00
  775.40   18.85 -999.25 -999.25 -999.25  20151204.045630    78.95    0.0000    0.0000    0.0000    0.0000    0.0000    0.0000    0.0000    1.256    0.00
  775.60    9.25 -999.25 -999.25 -999.25  20151204.045822    46.70    0.0000    0.0000    0.0000    0.0000    0.0000    0.0000    0.0000    1.172    0.00
  775.80    9.92 -999.25 -999.25 -999.25  20151204.050021    25.43    0.0000    0.0000    0.0000    0.0000    0.0000    0.0000    0.0000    0.947    0.00
  776.00   10.50 -999.25 -999.25 -999.25  20151204.050227    34.55    0.0000    0.0000    0.0000    0.0000    0.0000    0.0000    0.0000    0.964    0.00
  776.20   25.83 -999.25 -999.25 -999.25  20151204.050737    49.01    0.0000    0.0000    0.0000    0.0000    0.0000    0.0000    0.0000    0.825    0.00
  776.40    3.00 -999.25 -999.25 -999.25  20151204.050813    34.39    0.0000    0.0000    0.0000    0.0000    0.0000    0.0000    0.0000    0.857    0.00
  776.60    2.50 -999.25 -999.25 -999.25  20151204.050842     5.76    0.0000    0.0000    0.0000    0.0000    0.0000    0.0000    0.0000    0.675    0.00
  776.80    2.50 -999.25 -999.25 -999.25  20151204.050913     5.60    0.0000    0.0000    0.0000    0.0000    0.0000    0.0000    0.0000    0.596    0.00
  777.00    2.58 -999.25 -999.25 -999.25  20151204.050944     6.22    0.0000    0.0000    0.0000    0.0000    0.0000    0.0000    0.0000    0.514    0.00
  777.20    5.21 -999.25 -999.25 -999.25  20151204.051045     7.42    0.0000    0.0000    0.0000    0.0000    0.0000    0.0000    0.0000    0.421    0.00
  777.40    6.63 -999.25 -999.25 -999.25  20151204.051204    12.40    0.0000    0.0000    0.0000    0.0000    0.0000    0.0000    0.0000    0.183    0.00
  777.60    2.31 -999.25 -999.25 -999.25  20151204.051236    13.12    0.0000    0.0000    0.0000    0.0000    0.0000    0.0000    0.0000    0.225    0.00
  777.80    4.10 -999.25 -999.25 -999.25  20151204.051319     9.75    0.0000    0.0000    0.0000    0.0000    0.0000    0.0000    0.0000    0.223    0.00
  778.00    4.95 -999.25 -999.25 -999.25  20151204.051418    11.17    0.0000    0.0000    0.0000    0.0000    0.0000    0.0000    0.0000    0.242    0.00
  778.20    4.68 -999.25 -999.25 -999.25  20151204.051515    15.46    0.0000    0.0000    0.0000    0.0000    0.0000    0.0000    0.0000    0.269    0.00
  778.40    3.45 -999.25 -999.25 -999.25  20151204.051556    11.92    0.0000    0.0000    0.0000    0.0000    0.0000    0.0000    0.0000    0.262    0.00
  778.60    5.92 -999.25 -999.25 -999.25  20151204.051707    13.23    0.0000    0.0000    0.0000    0.0000    0.0000    0.0000    0.0000    0.226    0.00
  778.80    5.03 -999.25 -999.25 -999.25  20151204.051807    16.53    0.0000    0.0000    0.0000    0.0000    0.0000    0.0000    0.0000    0.267    0.00
  779.00    3.73 -999.25 -999.25 -999.25  20151204.051852    12.54    0.0000    0.0000    0.0000    0.0000    0.0000    0.0000    0.0000    0.278    0.00
  779.20    4.32 -999.25 -999.25 -999.25  20151204.051943    15.20    0.0000    0.0000    0.0000    0.0000    0.0000    0.0000    0.0000    0.264    0.00
  779.40    4.20 -999.25 -999.25 -999.25  20151204.052034    12.71    0.0000    0.0000    0.0000    0.0000    0.0000    0.0000    0.0000    0.260    0.00
  779.60    5.57 -999.25 -999.25 -999.25  20151204.052141     9.05    0.0000    0.0000    0.0000    0.0000    0.0000    0.0000    0.0000    0.268    0.00
  779.80   12.43 -999.25 -999.25 -999.25  20151204.052819    23.45    0.0000    0.0000    0.0000    0.0000    0.0000    0.0000    0.0000    0.287    0.00
  780.00    4.34 -999.25 -999.25 -999.25  20151204.052912    99.94    0.0000    0.0000    0.0000    0.0000    0.0000    0.0000    0.0000    0.807    0.00
