~VERSION INFORMATION
#
#File created by GEO-data Geological Wellsite Services GmbH.
#Parts or all of this file may be confidential.
#
# This is a "LAS" file containing logging data in ascii form.
#
 VERS.        2.0             :CWLS LOG ASCII STANDARD - VERSION 2.0
 WRAP.        NO              :Single line per depth step
~WELL INFORMATION
#MNEM.UNIT        DATA              DESCRIPTION OF MNEMONIC
#---------    -------------         ------------------------
 STRT.M       0.20            :Start DEPTH
 STOP.M       3038.00         :End DEPTH
 STEP.M       0.20            :DEPTH step
 NULL.        -999.25         :NULL VALUE
 COMP.        CLG             :COMPANY
 WELL.        Cal-GT-04       :WELL
 FLD .        Californie      :FIELD
 LOC .        Californie      :LOCATION
 PROV.        <no data>       :PROVINCE
 CNTY.        <no data>       :COUNTY
 STAT.        Niederlande     :STATE
 CTRY.        Niederlande     :COUNTRY
 SRVC.        GEO-data        :SERVICE COMPANY
 DATE.        08.02.2016      :DATE
 UWI .        {ADF187BD-5224-4002-B869-0B87FE3BAB56}:UNIQUE WELL ID
 API .        <no data>       :API NUMBER
 LBEG.        No ID entered   :(LBEG) well code
~CURVE INFORMATION
#MNEM.UNIT      API CODE      CURVE DESCRIPTION
#---------    -------------   ------------------------------
 DEPTH.M                      :depth
 ROP_2DM.MINPERM              :rop_2dm
 GAMMARAY_1.API               :gammaray_1
 GAMMARAY_2.API               :gammaray_2
 GAMMARAY_3.API               :gammaray_3
 CLOCKDATE.                   :Date/Time
 SPECIFICENERGY.KPSI          :specificenergy
 C1_HIRES.VOLPERCENT          :c1_hires
 C2_HIRES.VOLPERCENT          :c2_hires
 C3_HIRES.VOLPERCENT          :c3_hires
 NC4_HIRES.VOLPERCENT         :nc4_hires
 IC4_HIRES.VOLPERCENT         :ic4_hires
 NC5_HIRES.VOLPERCENT         :nc5_hires
 IC5_HIRES.VOLPERCENT         :ic5_hires
 MSE .KBAR                    :mse
 CTOTAL_HIRES.VOLPERCENT      :ctotal_hires
~PARAMETER INFORMATION
#MNEM.UNIT        VALUE       DESCRIPTION OF MNEMONIC
#---------    -------------   ------------------------------
~OTHER INFORMATION
~ASCII Log data section
# ...
 2465.00   30.00   13.14   13.14 -999.25  20160109.162109  1023.89    0.0000    0.0000    0.0000    0.0000    0.0000    0.0000    0.0000   79.243    0.00
 2465.20   27.50   12.43   12.43 -999.25  20160109.162639  1022.65    0.0000    0.0000    0.0000    0.0000    0.0000    0.0000    0.0000   84.357    0.00
 2465.40   30.83   12.86   12.86 -999.25  20160109.163249   943.44    0.0000    0.0000    0.0000    0.0000    0.0000    0.0000    0.0000   88.394    0.00
 2465.60   82.42   12.86   12.86 -999.25  20160109.164918   734.40    0.0000    0.0000    0.0000    0.0000    0.0000    0.0000    0.0000   93.419    0.00
 2465.80   18.33   13.14   13.14 -999.25  20160109.165258  2256.94    0.0000    0.0000    0.0000    0.0000    0.0000    0.0000    0.0000  129.797    0.00
 2466.00   19.25   13.14   13.14 -999.25  20160109.165649   625.15    0.0000    0.0000    0.0000    0.0000    0.0000    0.0000    0.0000  119.280    0.00
 2466.20   29.25   12.14   12.14 -999.25  20160109.170240   712.49    0.0000    0.0000    0.0000    0.0000    0.0000    0.0000    0.0000  111.301    0.00
 2466.40   23.67   11.14   11.14 -999.25  20160109.170724  1088.21    0.0000    0.0000    0.0000    0.0000    0.0000    0.0000    0.0000  113.045    0.00
 2466.60   18.42    9.00    9.00 -999.25  20160109.171105   920.39    0.0000    0.0000    0.0000    0.0000    0.0000    0.0000    0.0000  107.000    0.00
 2466.80   24.33    8.13    8.13 -999.25  20160109.171557   757.14    0.0000    0.0000    0.0000    0.0000    0.0000    0.0000    0.0000   67.141    0.00
 2467.00   24.00    8.13    8.13 -999.25  20160109.172045   998.42    0.0000    0.0000    0.0000    0.0000    0.0000    0.0000    0.0000   71.079    0.00
 2467.20   29.33    8.71    8.71 -999.25  20160109.172637   993.42    0.0000    0.0000    0.0000    0.0000    0.0000    0.0000    0.0000   73.800    0.00
 2467.40   24.49    9.57    9.57 -999.25  20160109.173130  1203.56    0.0000    0.0000    0.0000    0.0000    0.0000    0.0000    0.0000   73.760    0.00
 2467.60   24.68   10.29   10.29 -999.25  20160109.173627  1006.25    0.0000    0.0000    0.0000    0.0000    0.0000    0.0000    0.0000   75.128    0.00
 2467.80   23.00   11.14   11.14 -999.25  20160109.174103  1010.41    0.0000    0.0000    0.0000    0.0000    0.0000    0.0000    0.0000   78.952    0.00
 2468.00   24.58   11.57   11.57 -999.25  20160109.174558   945.31    0.0000    0.0000    0.0000    0.0000    0.0000    0.0000    0.0000   77.161    0.00
 2468.20   23.33   12.57   12.57 -999.25  20160109.175038  1006.90    0.0000    0.0000    0.0000    0.0000    0.0000    0.0000    0.0000   78.030    0.00
 2468.40   25.67   13.29   13.29 -999.25  20160109.175546   960.02    0.0000    0.0000    0.0000    0.0000    0.0000    0.0000    0.0000   73.833    0.00
 2468.60   16.75   12.00   12.00 -999.25  20160109.175907  1030.85    0.0000    0.0000    0.0000    0.0000    0.0000    0.0000    0.0000   76.868    0.00
 2468.80   10.17   13.57   13.57 -999.25  20160109.180155   666.29    0.0000    0.0000    0.0000    0.0000    0.0000    0.0000    0.0000   71.227    0.00
 2469.00   19.17   27.43   27.43 -999.25  20160109.180545   414.74    0.0000    0.0000    0.0000    0.0000    0.0000    0.0000    0.0000   61.973    0.00
 2469.20   18.17   26.86   26.86 -999.25  20160109.180923   775.48    0.0000    0.0000    0.0000    0.0000    0.0000    0.0000    0.0000   59.317    0.00
 2469.40   11.49   28.14   28.14 -999.25  20160109.181140   709.83    0.0000    0.0000    0.0000    0.0000    0.0000    0.0000    0.0000   55.975    0.00
 2469.60    9.02   12.71   12.71 -999.25  20160109.181329   439.19    0.0000    0.0000    0.0000    0.0000    0.0000    0.0000    0.0000   47.901    0.00
 2469.80   14.71   12.14   12.14 -999.25  20160109.181625   310.77    0.0000    0.0000    0.0000    0.0000    0.0000    0.0000    0.0000   43.438    0.00
 2470.00   11.55   10.57   10.57 -999.25  20160109.181844   490.86    0.0000    0.0000    0.0000    0.0000    0.0000    0.0000    0.0000   46.624    0.00
 2470.20    7.75   11.14   11.14 -999.25  20160109.182017   364.82    0.0000    0.0000    0.0000    0.0000    0.0000    0.0000    0.0000   42.470    0.00
 2470.40    7.21   12.86   12.86 -999.25  20160109.182143   242.40    0.0000    0.0000    0.0000    0.0000    0.0000    0.0000    0.0000   35.585    0.00
 2470.60    8.78   13.57   13.57 -999.25  20160109.182329   234.40    0.0000    0.0000    0.0000    0.0000    0.0000    0.0000    0.0000   32.592    0.00
 2470.80   12.92   13.71   13.71 -999.25  20160109.182604   298.06    0.0000    0.0000    0.0000    0.0000    0.0000    0.0000    0.0000   32.371    0.00
 2471.00   10.33   10.57   10.57 -999.25  20160109.182808   425.34    0.0000    0.0000    0.0000    0.0000    0.0000    0.0000    0.0000   31.493    0.00
 2471.20   11.25    8.43    8.43 -999.25  20160109.183023   345.47    0.0000    0.0000    0.0000    0.0000    0.0000    0.0000    0.0000   30.267    0.00
 2471.40   11.42    7.43    7.43 -999.25  20160109.183240   374.69    0.0000    0.0000    0.0000    0.0000    0.0000    0.0000    0.0000   32.744    0.00
 2471.60    7.42    8.71    8.71 -999.25  20160109.183409   359.21    0.0000    0.0000    0.0000    0.0000    0.0000    0.0000    0.0000   36.087    0.00
 2471.80   12.00   11.29   11.29 -999.25  20160109.183633   250.54    0.0000    0.0000    0.0000    0.0000    0.0000    0.0000    0.0000   34.521    0.00
 2472.00   14.25   14.71   14.71 -999.25  20160109.183924   409.48    0.0000    0.0000    0.0000    0.0000    0.0000    0.0000    0.0000   34.069    0.00
 2472.20   12.67   16.29   16.29 -999.25  20160109.184156   480.12    0.0000    0.0000    0.0000    0.0000    0.0000    0.0000    0.0000   36.391    0.00
 2472.40   14.33   15.29   15.29 -999.25  20160109.184448   432.07    0.0000    0.0000    0.0000    0.0000    0.0000    0.0000    0.0000   37.090    0.00
 2472.60   17.39   13.86   13.86 -999.25  20160109.184816   496.60    0.0000    0.0000    0.0000    0.0000    0.0000    0.0000    0.0000   38.675    0.00
 2472.80   16.20   12.14   12.14 -999.25  20160109.185131   598.17    0.0000    0.0000    0.0000    0.0000    0.0000    0.0000    0.0000   45.270    0.00
 2473.00   17.00   14.38   14.38 -999.25  20160109.185455   560.73    0.0000    0.0000    0.0000    0.0000    0.0000    0.0000    0.0000   47.838    0.00
 2473.20   16.13   16.50   16.50 -999.25  20160109.185808   585.16    0.0000    0.0000    0.0000    0.0000    0.0000    0.0000    0.0000   50.161    0.00
 2473.40   12.13   15.50   15.50 -999.25  20160109.190034   540.83    0.0000    0.0000    0.0000    0.0000    0.0000    0.0000    0.0000   52.964    0.00
 2473.60   14.92   11.57   11.57 -999.25  20160109.190333   415.40    0.0000    0.0000    0.0000    0.0000    0.0000    0.0000    0.0000   50.701    0.00
 2473.80   13.33    9.29    9.29 -999.25  20160109.190613   505.36    0.0000    0.0000    0.0000    0.0000    0.0000    0.0000    0.0000   50.120    0.00
 2474.00   11.83   11.00   11.00 -999.25  20160109.190835   446.63    0.0000    0.0000    0.0000    0.0000    0.0000    0.0000    0.0000   49.164    0.00
 2474.20   12.42   13.86   13.86 -999.25  20160109.191104   398.37    0.0000    0.0000    0.0000    0.0000    0.0000    0.0000    0.0000   45.656    0.00
 2474.40   12.33   16.43   16.43 -999.25  20160109.191332   417.71    0.0000    0.0000    0.0000    0.0000    0.0000    0.0000    0.0000   42.381    0.00
 2474.60   14.83   14.57   14.57 -999.25  20160109.191630   376.44    0.0000    0.0000    0.0000    0.0000    0.0000    0.0000    0.0000   41.707    0.00
 2474.80   17.28   13.43   13.43 -999.25  20160109.191956   431.07    0.0000    0.0000    0.0000    0.0000    0.0000    0.0000    0.0000   41.334    0.00
 2475.00   18.30   14.57   14.57 -999.25  20160109.192337   503.75    0.0000    0.0000    0.0000    0.0000    0.0000    0.0000    0.0000   43.897    0.00
 2475.20   18.67   15.57   15.57 -999.25  20160109.192721   534.39    0.0000    0.0000    0.0000    0.0000    0.0000    0.0000    0.0000   47.838    0.00
