~VERSION INFORMATION
#
#File created by GEO-data Geological Wellsite Services GmbH.
#Parts or all of this file may be confidential.
#
# This is a "LAS" file containing logging data in ascii form.
#
 VERS.        2.0             :CWLS LOG ASCII STANDARD - VERSION 2.0
 WRAP.        NO              :Single line per depth step
~WELL INFORMATION
#MNEM.UNIT        DATA              DESCRIPTION OF MNEMONIC
#---------    -------------         ------------------------
 STRT.M       0.20            :Start DEPTH
 STOP.M       3038.00         :End DEPTH
 STEP.M       0.20            :DEPTH step
 NULL.        -999.25         :NULL VALUE
 COMP.        CLG             :COMPANY
 WELL.        Cal-GT-04       :WELL
 FLD .        Californie      :FIELD
 LOC .        Californie      :LOCATION
 PROV.        <no data>       :PROVINCE
 CNTY.        <no data>       :COUNTY
 STAT.        Niederlande     :STATE
 CTRY.        Niederlande     :COUNTRY
 SRVC.        GEO-data        :SERVICE COMPANY
 DATE.        08.02.2016      :DATE
 UWI .        {ADF187BD-5224-4002-B869-0B87FE3BAB56}:UNIQUE WELL ID
 API .        <no data>       :API NUMBER
 LBEG.        No ID entered   :(LBEG) well code
~CURVE INFORMATION
#MNEM.UNIT      API CODE      CURVE DESCRIPTION
#---------    -------------   ------------------------------
 DEPTH.M                      :depth
 ROP_2DM.MINPERM              :rop_2dm
 GAMMARAY_1.API               :gammaray_1
 GAMMARAY_2.API               :gammaray_2
 GAMMARAY_3.API               :gammaray_3
 CLOCKDATE.                   :Date/Time
 SPECIFICENERGY.KPSI          :specificenergy
 C1_HIRES.VOLPERCENT          :c1_hires
 C2_HIRES.VOLPERCENT          :c2_hires
 C3_HIRES.VOLPERCENT          :c3_hires
 NC4_HIRES.VOLPERCENT         :nc4_hires
 IC4_HIRES.VOLPERCENT         :ic4_hires
 NC5_HIRES.VOLPERCENT         :nc5_hires
 IC5_HIRES.VOLPERCENT         :ic5_hires
 MSE .KBAR                    :mse
 CTOTAL_HIRES.VOLPERCENT      :ctotal_hires
~PARAMETER INFORMATION
#MNEM.UNIT        VALUE       DESCRIPTION OF MNEMONIC
#---------    -------------   ------------------------------
~OTHER INFORMATION
~ASCII Log data section
# ...
 2090.60    5.92   16.00   16.00 -999.25  20160103.023107   168.19    0.0000    0.0000    0.0000    0.0000    0.0000    0.0000    0.0000   14.783    0.00
 2090.80    4.42   16.00   16.00 -999.25  20160103.023200   127.04    0.0000    0.0000    0.0000    0.0000    0.0000    0.0000    0.0000   15.396    0.00
 2091.00    8.25   13.29   13.29 -999.25  20160103.024835    86.35    0.0000    0.0000    0.0000    0.0000    0.0000    0.0000    0.0000    8.730    0.00
 2091.20    6.92   14.25   14.25 -999.25  20160103.024958    20.13    0.0000    0.0000    0.0000    0.0000    0.0000    0.0000    0.0000    0.085    0.00
 2091.40    6.25   17.25   17.25 -999.25  20160103.025113    48.46    0.0000    0.0000    0.0000    0.0000    0.0000    0.0000    0.0000    0.225    0.00
 2091.60    6.67   23.13   23.13 -999.25  20160103.025233    53.44    0.0000    0.0000    0.0000    0.0000    0.0000    0.0000    0.0000    0.220    0.00
 2091.80    7.83   32.00   32.00 -999.25  20160103.025407    61.26    0.0000    0.0000    0.0000    0.0000    0.0000    0.0000    0.0000    0.226    0.00
 2092.00    7.94   32.38   32.38 -999.25  20160103.025542    73.71    0.0000    0.0000    0.0000    0.0000    0.0000    0.0000    0.0000    0.249    0.00
 2092.20   12.30   34.50   34.50 -999.25  20160103.025810    82.85    0.0000    0.0000    0.0000    0.0000    0.0000    0.0000    0.0000    0.248    0.00
 2092.40    6.67   33.57   33.57 -999.25  20160103.025930   103.27    0.0000    0.0000    0.0000    0.0000    0.0000    0.0000    0.0000    0.283    0.00
 2092.60    5.25   33.29   33.29 -999.25  20160103.030033    48.98    0.0000    0.0000    0.0000    0.0000    0.0000    0.0000    0.0000    0.804    0.00
 2092.80    8.17   31.86   31.86 -999.25  20160103.030211    49.53    0.0000    0.0000    0.0000    0.0000    0.0000    0.0000    0.0000    1.499    0.00
 2093.00    8.17   28.00   28.00 -999.25  20160103.030349    75.98    0.0000    0.0000    0.0000    0.0000    0.0000    0.0000    0.0000    1.512    0.00
 2093.20    7.92   30.29   30.29 -999.25  20160103.030524    75.32    0.0000    0.0000    0.0000    0.0000    0.0000    0.0000    0.0000    1.520    0.00
 2093.40    8.58   38.00   38.00 -999.25  20160103.030707    75.52    0.0000    0.0000    0.0000    0.0000    0.0000    0.0000    0.0000    0.615    0.00
 2093.60   10.62   39.63   39.63 -999.25  20160103.030914    87.21    0.0000    0.0000    0.0000    0.0000    0.0000    0.0000    0.0000    0.329    0.00
 2093.80   12.38   48.50   48.50 -999.25  20160103.031143   111.91    0.0000    0.0000    0.0000    0.0000    0.0000    0.0000    0.0000    0.375    0.00
 2094.00    8.17   50.29   50.29 -999.25  20160103.031321   113.89    0.0000    0.0000    0.0000    0.0000    0.0000    0.0000    0.0000    0.410    0.00
 2094.20    8.42   45.86   45.86 -999.25  20160103.034312    79.86    0.0000    0.0000    0.0000    0.0000    0.0000    0.0000    0.0000   12.264    0.00
 2094.40    6.25   48.43   48.43 -999.25  20160103.034427    86.15    0.0000    0.0000    0.0000    0.0000    0.0000    0.0000    0.0000   24.280    0.00
 2094.60    6.67   43.67   43.67 -999.25  20160103.034547    83.37    0.0000    0.0000    0.0000    0.0000    0.0000    0.0000    0.0000   22.718    0.00
 2094.80    8.25   38.67   38.67 -999.25  20160103.034726   118.15    0.0000    0.0000    0.0000    0.0000    0.0000    0.0000    0.0000   20.365    0.00
 2095.00    6.33   36.50   36.50 -999.25  20160103.034842   113.65    0.0000    0.0000    0.0000    0.0000    0.0000    0.0000    0.0000   18.599    0.00
 2095.20    6.25   33.43   33.43 -999.25  20160103.034957    86.47    0.0000    0.0000    0.0000    0.0000    0.0000    0.0000    0.0000   17.739    0.00
 2095.40    6.25   39.38   39.38 -999.25  20160103.035112   103.73    0.0000    0.0000    0.0000    0.0000    0.0000    0.0000    0.0000   16.565    0.00
 2095.60    6.33   43.63   43.63 -999.25  20160103.035228    91.88    0.0000    0.0000    0.0000    0.0000    0.0000    0.0000    0.0000   16.736    0.00
 2095.80    6.25   39.38   39.38 -999.25  20160103.035343   110.83    0.0000    0.0000    0.0000    0.0000    0.0000    0.0000    0.0000   16.457    0.00
 2096.00    8.58   29.43   29.43 -999.25  20160103.040218    58.41    0.0000    0.0000    0.0000    0.0000    0.0000    0.0000    0.0000    9.506    0.00
 2096.20    7.97   21.57   21.57 -999.25  20160103.040353     5.60    0.0000    0.0000    0.0000    0.0000    0.0000    0.0000    0.0000    0.429    0.00
 2096.40   10.35   24.14   24.14 -999.25  20160103.041253    27.33    0.0000    0.0000    0.0000    0.0000    0.0000    0.0000    0.0000    0.370    0.00
 2096.60   10.25   33.00   33.00 -999.25  20160103.041456    49.70    0.0000    0.0000    0.0000    0.0000    0.0000    0.0000    0.0000    0.067    0.00
 2096.80   10.25   37.43   37.43 -999.25  20160103.041659    37.25    0.0000    0.0000    0.0000    0.0000    0.0000    0.0000    0.0000    0.083    0.00
 2097.00   12.33   34.00   34.00 -999.25  20160103.041927    79.67    0.0000    0.0000    0.0000    0.0000    0.0000    0.0000    0.0000    0.079    0.00
 2097.20   23.92   24.00   24.00 -999.25  20160103.042414    99.99    0.0000    0.0000    0.0000    0.0000    0.0000    0.0000    0.0000    0.482    0.00
 2097.40   13.00   14.00   14.00 -999.25  20160103.042650   145.87    0.0000    0.0000    0.0000    0.0000    0.0000    0.0000    0.0000    0.537    0.00
 2097.60   12.87    9.14    9.14 -999.25  20160103.042924    61.64    0.0000    0.0000    0.0000    0.0000    0.0000    0.0000    0.0000    0.569    0.00
 2097.80   10.39    7.13    7.13 -999.25  20160103.043129    73.14    0.0000    0.0000    0.0000    0.0000    0.0000    0.0000    0.0000    0.498    0.00
 2098.00   10.25    6.50    6.50 -999.25  20160103.043332    68.70    0.0000    0.0000    0.0000    0.0000    0.0000    0.0000    0.0000    0.392    0.00
 2098.20   10.28    6.38    6.38 -999.25  20160103.043535    50.02    0.0000    0.0000    0.0000    0.0000    0.0000    0.0000    0.0000    0.360    0.00
 2098.40   10.30    6.57    6.57 -999.25  20160103.043739    74.65    0.0000    0.0000    0.0000    0.0000    0.0000    0.0000    0.0000    0.924    0.00
 2098.60   10.33    5.00    5.00 -999.25  20160103.043943    37.65    0.0000    0.0000    0.0000    0.0000    0.0000    0.0000    0.0000    1.109    0.00
 2098.80   10.25    5.25    5.25 -999.25  20160103.044146    48.99    0.0000    0.0000    0.0000    0.0000    0.0000    0.0000    0.0000    1.057    0.00
 2099.00   10.25    4.38    4.38 -999.25  20160103.044349    74.42    0.0000    0.0000    0.0000    0.0000    0.0000    0.0000    0.0000    1.056    0.00
 2099.20   10.33    5.13    5.13 -999.25  20160103.044553    93.72    0.0000    0.0000    0.0000    0.0000    0.0000    0.0000    0.0000    1.057    0.00
 2099.40   10.08    5.29    5.29 -999.25  20160103.045745   145.96    0.0000    0.0000    0.0000    0.0000    0.0000    0.0000    0.0000   18.034    0.00
 2099.60    9.31    5.14    5.14 -999.25  20160103.045936   180.91    0.0000    0.0000    0.0000    0.0000    0.0000    0.0000    0.0000   23.790    0.00
 2099.80    7.12    5.57    5.57 -999.25  20160103.050102   179.81    0.0000    0.0000    0.0000    0.0000    0.0000    0.0000    0.0000   23.078    0.00
 2100.00    5.42    6.29    6.29 -999.25  20160103.050207   152.48    0.0000    0.0000    0.0000    0.0000    0.0000    0.0000    0.0000   21.108    0.00
 2100.20    6.08    6.86    6.86 -999.25  20160103.050320   123.21    0.0000    0.0000    0.0000    0.0000    0.0000    0.0000    0.0000   19.067    0.00
 2100.40    6.25   10.86   10.86 -999.25  20160103.050435   142.42    0.0000    0.0000    0.0000    0.0000    0.0000    0.0000    0.0000   17.310    0.00
 2100.60    4.75   15.57   15.57 -999.25  20160103.050532   129.64    0.0000    0.0000    0.0000    0.0000    0.0000    0.0000    0.0000   16.152    0.00
 2100.80    4.00   20.43   20.43 -999.25  20160103.050620    92.50    0.0000    0.0000    0.0000    0.0000    0.0000    0.0000    0.0000   14.001    0.00
