~VERSION INFORMATION
#
#File created by GEO-data Geological Wellsite Services GmbH.
#Parts or all of this file may be confidential.
#
# This is a "LAS" file containing logging data in ascii form.
#
 VERS.        2.0             :CWLS LOG ASCII STANDARD - VERSION 2.0
 WRAP.        NO              :Single line per depth step
~WELL INFORMATION
#MNEM.UNIT        DATA              DESCRIPTION OF MNEMONIC
#---------    -------------         ------------------------
 STRT.M       0.20            :Start DEPTH
 STOP.M       3038.00         :End DEPTH
 STEP.M       0.20            :DEPTH step
 NULL.        -999.25         :NULL VALUE
 COMP.        CLG             :COMPANY
 WELL.        Cal-GT-04       :WELL
 FLD .        Californie      :FIELD
 LOC .        Californie      :LOCATION
 PROV.        <no data>       :PROVINCE
 CNTY.        <no data>       :COUNTY
 STAT.        Niederlande     :STATE
 CTRY.        Niederlande     :COUNTRY
 SRVC.        GEO-data        :SERVICE COMPANY
 DATE.        08.02.2016      :DATE
 UWI .        {ADF187BD-5224-4002-B869-0B87FE3BAB56}:UNIQUE WELL ID
 API .        <no data>       :API NUMBER
 LBEG.        No ID entered   :(LBEG) well code
~CURVE INFORMATION
#MNEM.UNIT      API CODE      CURVE DESCRIPTION
#---------    -------------   ------------------------------
 DEPTH.M                      :depth
 ROP_2DM.MINPERM              :rop_2dm
 GAMMARAY_1.API               :gammaray_1
 GAMMARAY_2.API               :gammaray_2
 GAMMARAY_3.API               :gammaray_3
 CLOCKDATE.                   :Date/Time
 SPECIFICENERGY.KPSI          :specificenergy
 C1_HIRES.VOLPERCENT          :c1_hires
 C2_HIRES.VOLPERCENT          :c2_hires
 C3_HIRES.VOLPERCENT          :c3_hires
 NC4_HIRES.VOLPERCENT         :nc4_hires
 IC4_HIRES.VOLPERCENT         :ic4_hires
 NC5_HIRES.VOLPERCENT         :nc5_hires
 IC5_HIRES.VOLPERCENT         :ic5_hires
 MSE .KBAR                    :mse
 CTOTAL_HIRES.VOLPERCENT      :ctotal_hires
~PARAMETER INFORMATION
#MNEM.UNIT        VALUE       DESCRIPTION OF MNEMONIC
#---------    -------------   ------------------------------
~OTHER INFORMATION
~ASCII Log data section
# ...
 1903.40    8.36   30.89   30.89 -999.25  20151231.071817   315.31    0.0000    0.0000    0.0000    0.0000    0.0000    0.0000    0.0000   25.037    0.02
 1903.60   10.67   25.72   25.72 -999.25  20151231.072025   265.99    0.0000    0.0000    0.0000    0.0000    0.0000    0.0000    0.0000   24.352    0.02
 1903.80   11.95   29.87   29.87 -999.25  20151231.072247   343.26    0.0000    0.0000    0.0000    0.0000    0.0000    0.0000    0.0000   22.490    0.02
 1904.00   13.79   36.83   36.83 -999.25  20151231.072534   390.76    0.0000    0.0000    0.0000    0.0000    0.0000    0.0000    0.0000   22.902    0.02
 1904.20   11.34   45.91   45.91 -999.25  20151231.072748   439.09    0.0000    0.0000    0.0000    0.0000    0.0000    0.0000    0.0000   22.862    0.02
 1904.40   12.54   51.34   51.34 -999.25  20151231.073018   367.19    0.0000    0.0000    0.0000    0.0000    0.0000    0.0000    0.0000   23.301    0.02
 1904.60   13.41   44.43   44.43 -999.25  20151231.073302   409.37    0.0000    0.0000    0.0000    0.0000    0.0000    0.0000    0.0000   24.776    0.02
 1904.80   10.35   36.18   36.18 -999.25  20151231.073505   421.48    0.0000    0.0000    0.0000    0.0000    0.0000    0.0000    0.0000   26.121    0.03
 1905.00   10.72   28.91   28.91 -999.25  20151231.073712   327.89    0.0000    0.0000    0.0000    0.0000    0.0000    0.0000    0.0000   25.255    0.03
 1905.20    6.44   18.26   18.26 -999.25  20151231.073831   309.04    0.0000    0.0000    0.0000    0.0000    0.0000    0.0000    0.0000   25.860    0.03
 1905.40    7.00   12.68   12.68 -999.25  20151231.073955   172.92    0.0000    0.0000    0.0000    0.0000    0.0000    0.0000    0.0000   23.268    0.03
 1905.60    7.40   11.57   11.57 -999.25  20151231.074123   200.98    0.0000    0.0000    0.0000    0.0000    0.0000    0.0000    0.0000   20.424    0.03
 1905.80   12.32   11.06   11.06 -999.25  20151231.074349   239.23    0.0000    0.0000    0.0000    0.0000    0.0000    0.0000    0.0000   18.066    0.03
 1906.00   11.80   10.84   10.84 -999.25  20151231.074611   331.43    0.0000    0.0000    0.0000    0.0000    0.0000    0.0000    0.0000   18.706    0.03
 1906.20   12.96   11.05   11.05 -999.25  20151231.074849   339.45    0.0000    0.0000    0.0000    0.0000    0.0000    0.0000    0.0000   18.437    0.03
 1906.40   10.03   11.06   11.06 -999.25  20151231.075052   369.21    0.0000    0.0000    0.0000    0.0000    0.0000    0.0000    0.0000   21.100    0.03
 1906.60    8.54   11.21   11.21 -999.25  20151231.075231   270.28    0.0000    0.0000    0.0000    0.0000    0.0000    0.0000    0.0000   22.878    0.03
 1906.80    8.45   11.47   11.47 -999.25  20151231.075412   251.26    0.0000    0.0000    0.0000    0.0000    0.0000    0.0000    0.0000   22.981    0.03
 1907.00   11.37   12.10   12.10 -999.25  20151231.075631   266.07    0.0000    0.0000    0.0000    0.0000    0.0000    0.0000    0.0000   20.640    0.03
 1907.20   12.92   12.26   12.26 -999.25  20151231.075906   361.43    0.0000    0.0000    0.0000    0.0000    0.0000    0.0000    0.0000   20.649    0.03
 1907.40    9.67   11.05   11.05 -999.25  20151231.080102   394.75    0.0000    0.0000    0.0000    0.0000    0.0000    0.0000    0.0000   20.970    0.03
 1907.60    8.55   10.33   10.33 -999.25  20151231.080243   289.78    0.0000    0.0000    0.0000    0.0000    0.0000    0.0000    0.0000   21.185    0.03
 1907.80    7.14    9.43    9.43 -999.25  20151231.080422   254.75    0.0000    0.0000    0.0000    0.0000    0.0000    0.0000    0.0000   21.258    0.02
 1908.00   10.76    9.31    9.31 -999.25  20151231.080613   218.03    0.0000    0.0000    0.0000    0.0000    0.0000    0.0000    0.0000   20.659    0.02
 1908.20    8.92    9.51    9.51 -999.25  20151231.080800   324.95    0.0000    0.0000    0.0000    0.0000    0.0000    0.0000    0.0000   20.373    0.02
 1908.40    7.92    9.80    9.80 -999.25  20151231.080935   263.89    0.0000    0.0000    0.0000    0.0000    0.0000    0.0000    0.0000   19.445    0.02
 1908.60    7.75   11.03   11.03 -999.25  20151231.081108   233.70    0.0000    0.0000    0.0000    0.0000    0.0000    0.0000    0.0000   18.196    0.02
 1908.80    9.42   14.24   14.24 -999.25  20151231.081301   237.47    0.0000    0.0000    0.0000    0.0000    0.0000    0.0000    0.0000   17.715    0.02
 1909.00   11.85   15.87   15.87 -999.25  20151231.081521   296.78    0.0000    0.0000    0.0000    0.0000    0.0000    0.0000    0.0000   18.931    0.02
 1909.20   13.62   16.20   16.20 -999.25  20151231.081807   379.85    0.0000    0.0000    0.0000    0.0000    0.0000    0.0000    0.0000   18.611    0.02
 1909.40   18.71   16.29   16.29 -999.25  20151231.082148   447.79    0.0000    0.0000    0.0000    0.0000    0.0000    0.0000    0.0000   20.581    0.02
 1909.60   19.61   15.35   15.35 -999.25  20151231.082547   617.95    0.0000    0.0000    0.0000    0.0000    0.0000    0.0000    0.0000   24.784    0.02
 1909.80   17.80   15.17   15.17 -999.25  20151231.082920   642.22    0.0000    0.0000    0.0000    0.0000    0.0000    0.0000    0.0000   29.651    0.02
 1910.00   19.28   15.06   15.06 -999.25  20151231.083307   586.20    0.0000    0.0000    0.0000    0.0000    0.0000    0.0000    0.0000   32.768    0.02
 1910.20   18.35   15.82   15.82 -999.25  20151231.083652   632.13    0.0000    0.0000    0.0000    0.0000    0.0000    0.0000    0.0000   35.637    0.02
 1910.40   18.58   18.98   18.98 -999.25  20151231.084035   600.49    0.0000    0.0000    0.0000    0.0000    0.0000    0.0000    0.0000   37.309    0.02
 1910.60   24.00   27.05   27.05 -999.25  20151231.084523   619.27    0.0000    0.0000    0.0000    0.0000    0.0000    0.0000    0.0000   37.303    0.01
 1910.80   17.17   55.65   55.65 -999.25  20151231.084849   779.58    0.0000    0.0000    0.0000    0.0000    0.0000    0.0000    0.0000   39.634    0.01
 1911.00   15.25   68.14   68.14 -999.25  20151231.085152   553.30    0.0000    0.0000    0.0000    0.0000    0.0000    0.0000    0.0000   40.187    0.01
 1911.20   16.83   66.60   66.60 -999.25  20151231.085514   495.19    0.0000    0.0000    0.0000    0.0000    0.0000    0.0000    0.0000   38.728    0.01
 1911.40   10.67   51.79   51.79 -999.25  20151231.085722   518.64    0.0000    0.0000    0.0000    0.0000    0.0000    0.0000    0.0000   38.593    0.01
 1911.60    8.42   40.55   40.55 -999.25  20151231.085903   315.84    0.0000    0.0000    0.0000    0.0000    0.0000    0.0000    0.0000   35.055    0.01
 1911.80   12.15   26.60   26.60 -999.25  20151231.090126   262.68    0.0000    0.0000    0.0000    0.0000    0.0000    0.0000    0.0000   27.939    0.01
 1912.00    7.69   21.37   21.37 -999.25  20151231.090300   350.44    0.0000    0.0000    0.0000    0.0000    0.0000    0.0000    0.0000   26.991    0.01
 1912.20    9.09   17.57   17.57 -999.25  20151231.090447   229.51    0.0000    0.0000    0.0000    0.0000    0.0000    0.0000    0.0000   23.680    0.01
 1912.40   10.63   13.96   13.96 -999.25  20151231.090657   187.36    0.0000    0.0000    0.0000    0.0000    0.0000    0.0000    0.0000   21.508    0.01
 1912.60    5.33   12.10   12.10 -999.25  20151231.090801   259.35    0.0000    0.0000    0.0000    0.0000    0.0000    0.0000    0.0000   19.974    0.01
 1912.80   16.08   12.60   12.60 -999.25  20151231.091111   177.40    0.0000    0.0000    0.0000    0.0000    0.0000    0.0000    0.0000   17.702    0.01
 1913.00   15.35   15.35   15.35 -999.25  20151231.091418   534.74    0.0000    0.0000    0.0000    0.0000    0.0000    0.0000    0.0000   19.239    0.01
 1913.20   17.92   22.88   22.88 -999.25  20151231.091749   534.25    0.0000    0.0000    0.0000    0.0000    0.0000    0.0000    0.0000   21.901    0.01
 1913.40   17.86   40.27   40.27 -999.25  20151231.092126   624.04    0.0000    0.0000    0.0000    0.0000    0.0000    0.0000    0.0000   25.608    0.01
 1913.60   17.64   49.96   49.96 -999.25  20151231.092459   620.63    0.0000    0.0000    0.0000    0.0000    0.0000    0.0000    0.0000   28.901    0.01
