~VERSION INFORMATION
#
#File created by GEO-data Geological Wellsite Services GmbH.
#Parts or all of this file may be confidential.
#
# This is a "LAS" file containing logging data in ascii form.
#
 VERS.        2.0             :CWLS LOG ASCII STANDARD - VERSION 2.0
 WRAP.        NO              :Single line per depth step
~WELL INFORMATION
#MNEM.UNIT        DATA              DESCRIPTION OF MNEMONIC
#---------    -------------         ------------------------
 STRT.M       0.20            :Start DEPTH
 STOP.M       3038.00         :End DEPTH
 STEP.M       0.20            :DEPTH step
 NULL.        -999.25         :NULL VALUE
 COMP.        CLG             :COMPANY
 WELL.        Cal-GT-04       :WELL
 FLD .        Californie      :FIELD
 LOC .        Californie      :LOCATION
 PROV.        <no data>       :PROVINCE
 CNTY.        <no data>       :COUNTY
 STAT.        Niederlande     :STATE
 CTRY.        Niederlande     :COUNTRY
 SRVC.        GEO-data        :SERVICE COMPANY
 DATE.        08.02.2016      :DATE
 UWI .        {ADF187BD-5224-4002-B869-0B87FE3BAB56}:UNIQUE WELL ID
 API .        <no data>       :API NUMBER
 LBEG.        No ID entered   :(LBEG) well code
~CURVE INFORMATION
#MNEM.UNIT      API CODE      CURVE DESCRIPTION
#---------    -------------   ------------------------------
 DEPTH.M                      :depth
 ROP_2DM.MINPERM              :rop_2dm
 GAMMARAY_1.API               :gammaray_1
 GAMMARAY_2.API               :gammaray_2
 GAMMARAY_3.API               :gammaray_3
 CLOCKDATE.                   :Date/Time
 SPECIFICENERGY.KPSI          :specificenergy
 C1_HIRES.VOLPERCENT          :c1_hires
 C2_HIRES.VOLPERCENT          :c2_hires
 C3_HIRES.VOLPERCENT          :c3_hires
 NC4_HIRES.VOLPERCENT         :nc4_hires
 IC4_HIRES.VOLPERCENT         :ic4_hires
 NC5_HIRES.VOLPERCENT         :nc5_hires
 IC5_HIRES.VOLPERCENT         :ic5_hires
 MSE .KBAR                    :mse
 CTOTAL_HIRES.VOLPERCENT      :ctotal_hires
~PARAMETER INFORMATION
#MNEM.UNIT        VALUE       DESCRIPTION OF MNEMONIC
#---------    -------------   ------------------------------
~OTHER INFORMATION
~ASCII Log data section
# ...
 1518.60    4.75  161.09 -999.25 -999.25  20151214.041631    32.70    0.0000    0.0000    0.0000    0.0000    0.0000    0.0000    0.0000    3.711    0.09
 1518.80    4.67  146.64 -999.25 -999.25  20151214.041727    33.19    0.0000    0.0000    0.0000    0.0000    0.0000    0.0000    0.0000    3.292    0.09
 1519.00    4.75  136.31 -999.25 -999.25  20151214.041824    31.44    0.0000    0.0000    0.0000    0.0000    0.0000    0.0000    0.0000    3.023    0.09
 1519.20    4.75  167.29 -999.25 -999.25  20151214.041921    31.13    0.0000    0.0000    0.0000    0.0000    0.0000    0.0000    0.0000    2.888    0.09
 1519.40    4.74  156.96 -999.25 -999.25  20151214.042017    30.77    0.0000    0.0000    0.0000    0.0000    0.0000    0.0000    0.0000    2.754    0.09
 1519.60    4.68  140.44 -999.25 -999.25  20151214.042114    31.10    0.0000    0.0000    0.0000    0.0000    0.0000    0.0000    0.0000    2.763    0.13
 1519.80    4.75  136.31 -999.25 -999.25  20151214.042211    31.38    0.0000    0.0000    0.0000    0.0000    0.0000    0.0000    0.0000    2.770    0.13
 1520.00    4.76  146.64 -999.25 -999.25  20151214.042307    31.25    0.0000    0.0000    0.0000    0.0000    0.0000    0.0000    0.0000    2.698    0.13
 1520.20    4.66  154.90 -999.25 -999.25  20151214.042404    32.84    0.0000    0.0000    0.0000    0.0000    0.0000    0.0000    0.0000    2.762    0.13
 1520.40    4.75 -999.25 -999.25 -999.25  20151214.042501    32.61    0.0000    0.0000    0.0000    0.0000    0.0000    0.0000    0.0000    2.712    0.12
 1520.60    4.73  142.51 -999.25 -999.25  20151214.042557    32.93    0.0000    0.0000    0.0000    0.0000    0.0000    0.0000    0.0000    2.688    0.13
 1520.80    3.13  159.03 -999.25 -999.25  20151214.042654    32.89    0.0000    0.0000    0.0000    0.0000    0.0000    0.0000    0.0000    2.687    0.16
 1521.00    4.75  154.90 -999.25 -999.25  20151214.042751    23.46    0.0000    0.0000    0.0000    0.0000    0.0000    0.0000    0.0000    2.524    0.16
 1521.20    6.46  140.44 -999.25 -999.25  20151214.042908    31.87    0.0000    0.0000    0.0000    0.0000    0.0000    0.0000    0.0000    2.510    0.16
 1521.40    5.88  154.90 -999.25 -999.25  20151214.043019    40.49    0.0000    0.0000    0.0000    0.0000    0.0000    0.0000    0.0000    2.605    0.16
 1521.60    5.92  144.57 -999.25 -999.25  20151214.043130    34.63    0.0000    0.0000    0.0000    0.0000    0.0000    0.0000    0.0000    2.696    0.16
 1521.80    5.92  150.77 -999.25 -999.25  20151214.043241    33.52    0.0000    0.0000    0.0000    0.0000    0.0000    0.0000    0.0000    2.678    0.16
 1522.00    5.92  140.44 -999.25 -999.25  20151214.043352    34.21    0.0000    0.0000    0.0000    0.0000    0.0000    0.0000    0.0000    2.952    0.20
 1522.20    5.95  134.24 -999.25 -999.25  20151214.043502    34.16    0.0000    0.0000    0.0000    0.0000    0.0000    0.0000    0.0000    3.053    0.19
 1522.40    5.92  125.98 -999.25 -999.25  20151214.043613    34.02    0.0000    0.0000    0.0000    0.0000    0.0000    0.0000    0.0000    2.963    0.16
 1522.60    5.84  142.51 -999.25 -999.25  20151214.043724    36.61    0.0000    0.0000    0.0000    0.0000    0.0000    0.0000    0.0000    2.999    0.12
 1522.80   10.02  115.66 -999.25 -999.25  20151214.043925    44.95    0.0000    0.0000    0.0000    0.0000    0.0000    0.0000    0.0000    2.915    0.00
 1523.00   17.58  105.33 -999.25 -999.25  20151214.044256    67.03    0.0000    0.0000    0.0000    0.0000    0.0000    0.0000    0.0000    3.287    0.00
 1523.20    9.77  111.53 -999.25 -999.25  20151214.044451   109.13    0.0000    0.0000    0.0000    0.0000    0.0000    0.0000    0.0000    4.421    0.00
 1523.40   12.76  119.79 -999.25 -999.25  20151214.044727    70.22    0.0000    0.0000    0.0000    0.0000    0.0000    0.0000    0.0000    4.849    0.00
 1523.60   12.25  128.05 -999.25 -999.25  20151214.044954    72.95    0.0000    0.0000    0.0000    0.0000    0.0000    0.0000    0.0000    5.605    0.00
 1523.80    8.08  130.11 -999.25 -999.25  20151214.045131    67.05    0.0000    0.0000    0.0000    0.0000    0.0000    0.0000    0.0000    6.152    0.00
 1524.00    7.17  132.18 -999.25 -999.25  20151214.045257    44.07    0.0000    0.0000    0.0000    0.0000    0.0000    0.0000    0.0000    6.065    0.00
 1524.20    6.35  130.11 -999.25 -999.25  20151214.045412    42.04    0.0000    0.0000    0.0000    0.0000    0.0000    0.0000    0.0000    5.116    0.00
 1524.40    5.99  138.37 -999.25 -999.25  20151214.045525    38.97    0.0000    0.0000    0.0000    0.0000    0.0000    0.0000    0.0000    4.783    0.04
 1524.60   20.33  156.96 -999.25 -999.25  20151214.053218    23.92    0.0000    0.0000    0.0000    0.0000    0.0000    0.0000    0.0000    3.538    0.04
 1524.80    4.92 -999.25 -999.25 -999.25  20151214.053317   106.46    0.0000    0.0000    0.0000    0.0000    0.0000    0.0000    0.0000    4.464    0.00
 1525.00    5.17  128.05 -999.25 -999.25  20151214.053419    32.51    0.0000    0.0000    0.0000    0.0000    0.0000    0.0000    0.0000    4.517    0.00
 1525.20    5.67  123.92 -999.25 -999.25  20151214.053527    36.51    0.0000    0.0000    0.0000    0.0000    0.0000    0.0000    0.0000    4.386    0.00
 1525.40    6.37  130.11 -999.25 -999.25  20151214.053642    36.98    0.0000    0.0000    0.0000    0.0000    0.0000    0.0000    0.0000    4.188    0.00
 1525.60    6.26  138.37 -999.25 -999.25  20151214.053758    39.34    0.0000    0.0000    0.0000    0.0000    0.0000    0.0000    0.0000    4.146    0.00
 1525.80    6.31  140.44 -999.25 -999.25  20151214.053913    42.77    0.0000    0.0000    0.0000    0.0000    0.0000    0.0000    0.0000    3.053    0.01
 1526.00    6.24  121.85 -999.25 -999.25  20151214.054029    44.01    0.0000    0.0000    0.0000    0.0000    0.0000    0.0000    0.0000    3.217    0.02
 1526.20    6.33  121.85 -999.25 -999.25  20151214.054145    43.67    0.0000    0.0000    0.0000    0.0000    0.0000    0.0000    0.0000    3.355    0.02
 1526.40    6.27  125.98 -999.25 -999.25  20151214.054300    44.53    0.0000    0.0000    0.0000    0.0000    0.0000    0.0000    0.0000    3.379    0.02
 1526.60    6.31  123.92 -999.25 -999.25  20151214.054416    46.19    0.0000    0.0000    0.0000    0.0000    0.0000    0.0000    0.0000    3.385    0.04
 1526.80    6.33  132.18 -999.25 -999.25  20151214.054532    46.73    0.0000    0.0000    0.0000    0.0000    0.0000    0.0000    0.0000    3.438    0.07
 1527.00    6.27  130.11 -999.25 -999.25  20151214.054647    41.09    0.0000    0.0000    0.0000    0.0000    0.0000    0.0000    0.0000    3.392    0.07
 1527.20    6.35  136.31 -999.25 -999.25  20151214.054802    44.07    0.0000    0.0000    0.0000    0.0000    0.0000    0.0000    0.0000    3.380    0.07
 1527.40    6.22  142.51 -999.25 -999.25  20151214.054918    49.08    0.0000    0.0000    0.0000    0.0000    0.0000    0.0000    0.0000    3.535    0.10
 1527.60    6.33  132.18 -999.25 -999.25  20151214.055034    40.77    0.0000    0.0000    0.0000    0.0000    0.0000    0.0000    0.0000    3.545    0.11
 1527.80    6.25  150.77 -999.25 -999.25  20151214.055149    38.06    0.0000    0.0000    0.0000    0.0000    0.0000    0.0000    0.0000    3.346    0.12
 1528.00    6.33  138.37 -999.25 -999.25  20151214.055305    37.64    0.0000    0.0000    0.0000    0.0000    0.0000    0.0000    0.0000    3.398    0.13
 1528.20    6.37  144.57 -999.25 -999.25  20151214.055420    39.90    0.0000    0.0000    0.0000    0.0000    0.0000    0.0000    0.0000    3.424    0.13
 1528.40    6.22  150.77 -999.25 -999.25  20151214.055536    40.80    0.0000    0.0000    0.0000    0.0000    0.0000    0.0000    0.0000    3.406    0.14
 1528.60    6.33  144.57 -999.25 -999.25  20151214.055652    38.91    0.0000    0.0000    0.0000    0.0000    0.0000    0.0000    0.0000    3.414    0.17
 1528.80    6.29  150.77 -999.25 -999.25  20151214.055807    37.72    0.0000    0.0000    0.0000    0.0000    0.0000    0.0000    0.0000    3.329    0.18
