~VERSION INFORMATION
#
#File created by GEO-data Geological Wellsite Services GmbH.
#Parts or all of this file may be confidential.
#
# This is a "LAS" file containing logging data in ascii form.
#
 VERS.        2.0             :CWLS LOG ASCII STANDARD - VERSION 2.0
 WRAP.        NO              :Single line per depth step
~WELL INFORMATION
#MNEM.UNIT        DATA              DESCRIPTION OF MNEMONIC
#---------    -------------         ------------------------
 STRT.M       0.20            :Start DEPTH
 STOP.M       3038.00         :End DEPTH
 STEP.M       0.20            :DEPTH step
 NULL.        -999.25         :NULL VALUE
 COMP.        CLG             :COMPANY
 WELL.        Cal-GT-04       :WELL
 FLD .        Californie      :FIELD
 LOC .        Californie      :LOCATION
 PROV.        <no data>       :PROVINCE
 CNTY.        <no data>       :COUNTY
 STAT.        Niederlande     :STATE
 CTRY.        Niederlande     :COUNTRY
 SRVC.        GEO-data        :SERVICE COMPANY
 DATE.        08.02.2016      :DATE
 UWI .        {ADF187BD-5224-4002-B869-0B87FE3BAB56}:UNIQUE WELL ID
 API .        <no data>       :API NUMBER
 LBEG.        No ID entered   :(LBEG) well code
~CURVE INFORMATION
#MNEM.UNIT      API CODE      CURVE DESCRIPTION
#---------    -------------   ------------------------------
 DEPTH.M                      :depth
 ROP_2DM.MINPERM              :rop_2dm
 GAMMARAY_1.API               :gammaray_1
 GAMMARAY_2.API               :gammaray_2
 GAMMARAY_3.API               :gammaray_3
 CLOCKDATE.                   :Date/Time
 SPECIFICENERGY.KPSI          :specificenergy
 C1_HIRES.VOLPERCENT          :c1_hires
 C2_HIRES.VOLPERCENT          :c2_hires
 C3_HIRES.VOLPERCENT          :c3_hires
 NC4_HIRES.VOLPERCENT         :nc4_hires
 IC4_HIRES.VOLPERCENT         :ic4_hires
 NC5_HIRES.VOLPERCENT         :nc5_hires
 IC5_HIRES.VOLPERCENT         :ic5_hires
 MSE .KBAR                    :mse
 CTOTAL_HIRES.VOLPERCENT      :ctotal_hires
~PARAMETER INFORMATION
#MNEM.UNIT        VALUE       DESCRIPTION OF MNEMONIC
#---------    -------------   ------------------------------
~OTHER INFORMATION
~ASCII Log data section
# ...
  957.00    2.66 -999.25 -999.25 -999.25  20151211.094228    24.40    0.0000    0.0000    0.0000    0.0000    0.0000    0.0000    0.0000    1.096    0.00
  957.20    2.42   82.61 -999.25 -999.25  20151211.094257    20.98    0.0000    0.0000    0.0000    0.0000    0.0000    0.0000    0.0000    1.076    0.00
  957.40    2.42   84.68 -999.25 -999.25  20151211.094326    18.89    0.0000    0.0000    0.0000    0.0000    0.0000    0.0000    0.0000    1.035    0.00
  957.60    2.83  105.33 -999.25 -999.25  20151211.094400    20.28    0.0000    0.0000    0.0000    0.0000    0.0000    0.0000    0.0000    1.119    0.00
  957.80    3.00   97.07 -999.25 -999.25  20151211.094436    24.42    0.0000    0.0000    0.0000    0.0000    0.0000    0.0000    0.0000    1.023    0.00
  958.00    2.80   80.55 -999.25 -999.25  20151211.094510    24.96    0.0000    0.0000    0.0000    0.0000    0.0000    0.0000    0.0000    1.102    0.00
  958.20    2.47   86.74 -999.25 -999.25  20151211.094540    21.48    0.0000    0.0000    0.0000    0.0000    0.0000    0.0000    0.0000    1.030    0.00
  958.40    2.56   78.48 -999.25 -999.25  20151211.094610    19.50    0.0000    0.0000    0.0000    0.0000    0.0000    0.0000    0.0000    1.084    0.00
  958.60    2.65  105.33 -999.25 -999.25  20151211.094642    20.40    0.0000    0.0000    0.0000    0.0000    0.0000    0.0000    0.0000    1.047    0.00
  958.80    3.02  138.37 -999.25 -999.25  20151211.094718    23.13    0.0000    0.0000    0.0000    0.0000    0.0000    0.0000    0.0000    1.107    0.00
  959.00    2.62  130.11 -999.25 -999.25  20151211.094750    23.88    0.0000    0.0000    0.0000    0.0000    0.0000    0.0000    0.0000    1.060    0.00
  959.20    2.74   97.07 -999.25 -999.25  20151211.094823    21.49    0.0000    0.0000    0.0000    0.0000    0.0000    0.0000    0.0000    1.084    0.00
  959.40    2.26   88.81 -999.25 -999.25  20151211.094850    19.12    0.0000    0.0000    0.0000    0.0000    0.0000    0.0000    0.0000    0.996    0.00
  959.60    2.17   95.00 -999.25 -999.25  20151211.094916    15.54    0.0000    0.0000    0.0000    0.0000    0.0000    0.0000    0.0000    0.953    0.00
  959.80    2.29   88.81 -999.25 -999.25  20151211.094943    15.56    0.0000    0.0000    0.0000    0.0000    0.0000    0.0000    0.0000    0.925    0.00
  960.00    2.83   99.13 -999.25 -999.25  20151211.095017    19.35    0.0000    0.0000    0.0000    0.0000    0.0000    0.0000    0.0000    0.943    0.00
  960.20    3.42   82.61 -999.25 -999.25  20151211.095058    26.33    0.0000    0.0000    0.0000    0.0000    0.0000    0.0000    0.0000    1.018    0.00
  960.40    3.33   86.74 -999.25 -999.25  20151211.095138    30.91    0.0000    0.0000    0.0000    0.0000    0.0000    0.0000    0.0000    1.094    0.00
  960.60    2.97   90.87 -999.25 -999.25  20151211.095214    28.62    0.0000    0.0000    0.0000    0.0000    0.0000    0.0000    0.0000    1.157    0.00
  960.80   19.35 -999.25 -999.25 -999.25  20151211.102749    12.09    0.0000    0.0000    0.0000    0.0000    0.0000    0.0000    0.0000    0.533    0.00
  961.00    3.50  130.11 -999.25 -999.25  20151211.102831   120.64    0.0000    0.0000    0.0000    0.0000    0.0000    0.0000    0.0000    1.910    0.00
  961.20    3.75 -999.25 -999.25 -999.25  20151211.102916    27.01    0.0000    0.0000    0.0000    0.0000    0.0000    0.0000    0.0000    2.228    0.00
  961.40    3.75  115.66 -999.25 -999.25  20151211.103001    27.60    0.0000    0.0000    0.0000    0.0000    0.0000    0.0000    0.0000    2.222    0.00
  961.60    4.00  115.66 -999.25 -999.25  20151211.103049    27.82    0.0000    0.0000    0.0000    0.0000    0.0000    0.0000    0.0000    2.321    0.00
  961.80    3.00   78.48 -999.25 -999.25  20151211.103125    25.95    0.0000    0.0000    0.0000    0.0000    0.0000    0.0000    0.0000    2.250    0.00
  962.00    3.42  105.33 -999.25 -999.25  20151211.103206    21.31    0.0000    0.0000    0.0000    0.0000    0.0000    0.0000    0.0000    1.189    0.00
  962.20    3.58  113.59 -999.25 -999.25  20151211.103249    24.37    0.0000    0.0000    0.0000    0.0000    0.0000    0.0000    0.0000    1.196    0.00
  962.40    3.33  159.03 -999.25 -999.25  20151211.103329    24.78    0.0000    0.0000    0.0000    0.0000    0.0000    0.0000    0.0000    1.134    0.00
  962.60    3.50  173.48 -999.25 -999.25  20151211.103411    23.59    0.0000    0.0000    0.0000    0.0000    0.0000    0.0000    0.0000    1.113    0.00
  962.80    3.42 -999.25 -999.25 -999.25  20151211.103452    24.43    0.0000    0.0000    0.0000    0.0000    0.0000    0.0000    0.0000    1.081    0.00
  963.00    3.50  140.44 -999.25 -999.25  20151211.103534    24.32    0.0000    0.0000    0.0000    0.0000    0.0000    0.0000    0.0000    1.135    0.00
  963.20    4.33  113.59 -999.25 -999.25  20151211.103626    27.09    0.0000    0.0000    0.0000    0.0000    0.0000    0.0000    0.0000    1.138    0.00
  963.40    3.67 -999.25 -999.25 -999.25  20151211.103710    30.98    0.0000    0.0000    0.0000    0.0000    0.0000    0.0000    0.0000    1.207    0.00
  963.60    3.42  136.31 -999.25 -999.25  20151211.103751    25.17    0.0000    0.0000    0.0000    0.0000    0.0000    0.0000    0.0000    1.141    0.00
  963.80    3.17  150.77 -999.25 -999.25  20151211.103829    24.47    0.0000    0.0000    0.0000    0.0000    0.0000    0.0000    0.0000    1.165    0.00
  964.00    3.50  161.09 -999.25 -999.25  20151211.103911    22.70    0.0000    0.0000    0.0000    0.0000    0.0000    0.0000    0.0000    1.171    0.00
  964.20    3.41  150.77 -999.25 -999.25  20151211.103952    24.39    0.0000    0.0000    0.0000    0.0000    0.0000    0.0000    0.0000    1.150    0.00
  964.40    3.51  142.51 -999.25 -999.25  20151211.104034    24.41    0.0000    0.0000    0.0000    0.0000    0.0000    0.0000    0.0000    1.062    0.00
  964.60    3.58  148.70 -999.25 -999.25  20151211.104117    25.28    0.0000    0.0000    0.0000    0.0000    0.0000    0.0000    0.0000    1.029    0.00
  964.80    3.50  154.90 -999.25 -999.25  20151211.104159    25.59    0.0000    0.0000    0.0000    0.0000    0.0000    0.0000    0.0000    1.043    0.00
  965.00    3.50  169.35 -999.25 -999.25  20151211.104241    24.82    0.0000    0.0000    0.0000    0.0000    0.0000    0.0000    0.0000    1.092    0.00
  965.20    3.58 -999.25 -999.25 -999.25  20151211.104324    25.23    0.0000    0.0000    0.0000    0.0000    0.0000    0.0000    0.0000    1.107    0.00
  965.40    3.58  146.64 -999.25 -999.25  20151211.104407    25.56    0.0000    0.0000    0.0000    0.0000    0.0000    0.0000    0.0000    1.093    0.00
  965.60    3.25  159.03 -999.25 -999.25  20151211.104446    26.08    0.0000    0.0000    0.0000    0.0000    0.0000    0.0000    0.0000    1.142    0.00
  965.80    2.83 -999.25 -999.25 -999.25  20151211.104520    24.79    0.0000    0.0000    0.0000    0.0000    0.0000    0.0000    0.0000    1.189    0.00
  966.00    2.75  159.03 -999.25 -999.25  20151211.104553    22.77    0.0000    0.0000    0.0000    0.0000    0.0000    0.0000    0.0000    1.163    0.00
  966.20    2.83  161.09 -999.25 -999.25  20151211.104627    23.12    0.0000    0.0000    0.0000    0.0000    0.0000    0.0000    0.0000    1.139    0.00
  966.40    2.67  156.96 -999.25 -999.25  20151211.104659    22.86    0.0000    0.0000    0.0000    0.0000    0.0000    0.0000    0.0000    1.065    0.00
  966.60    2.67 -999.25 -999.25 -999.25  20151211.104731    21.75    0.0000    0.0000    0.0000    0.0000    0.0000    0.0000    0.0000    1.023    0.00
  966.80    2.63  177.62 -999.25 -999.25  20151211.104803    21.83    0.0000    0.0000    0.0000    0.0000    0.0000    0.0000    0.0000    0.965    0.00
  967.00    2.87 -999.25 -999.25 -999.25  20151211.104837    21.86    0.0000    0.0000    0.0000    0.0000    0.0000    0.0000    0.0000    0.967    0.00
  967.20    2.82  163.16 -999.25 -999.25  20151211.104911    23.98    0.0000    0.0000    0.0000    0.0000    0.0000    0.0000    0.0000    0.975    0.00
