~VERSION INFORMATION
#
#File created by GEO-data Geological Wellsite Services GmbH.
#Parts or all of this file may be confidential.
#
# This is a "LAS" file containing logging data in ascii form.
#
 VERS.        2.0             :CWLS LOG ASCII STANDARD - VERSION 2.0
 WRAP.        NO              :Single line per depth step
~WELL INFORMATION
#MNEM.UNIT        DATA              DESCRIPTION OF MNEMONIC
#---------    -------------         ------------------------
 STRT.M       0.20            :Start DEPTH
 STOP.M       3038.00         :End DEPTH
 STEP.M       0.20            :DEPTH step
 NULL.        -999.25         :NULL VALUE
 COMP.        CLG             :COMPANY
 WELL.        Cal-GT-04       :WELL
 FLD .        Californie      :FIELD
 LOC .        Californie      :LOCATION
 PROV.        <no data>       :PROVINCE
 CNTY.        <no data>       :COUNTY
 STAT.        Niederlande     :STATE
 CTRY.        Niederlande     :COUNTRY
 SRVC.        GEO-data        :SERVICE COMPANY
 DATE.        08.02.2016      :DATE
 UWI .        {ADF187BD-5224-4002-B869-0B87FE3BAB56}:UNIQUE WELL ID
 API .        <no data>       :API NUMBER
 LBEG.        No ID entered   :(LBEG) well code
~CURVE INFORMATION
#MNEM.UNIT      API CODE      CURVE DESCRIPTION
#---------    -------------   ------------------------------
 DEPTH.M                      :depth
 ROP_2DM.MINPERM              :rop_2dm
 GAMMARAY_1.API               :gammaray_1
 GAMMARAY_2.API               :gammaray_2
 GAMMARAY_3.API               :gammaray_3
 CLOCKDATE.                   :Date/Time
 SPECIFICENERGY.KPSI          :specificenergy
 C1_HIRES.VOLPERCENT          :c1_hires
 C2_HIRES.VOLPERCENT          :c2_hires
 C3_HIRES.VOLPERCENT          :c3_hires
 NC4_HIRES.VOLPERCENT         :nc4_hires
 IC4_HIRES.VOLPERCENT         :ic4_hires
 NC5_HIRES.VOLPERCENT         :nc5_hires
 IC5_HIRES.VOLPERCENT         :ic5_hires
 MSE .KBAR                    :mse
 CTOTAL_HIRES.VOLPERCENT      :ctotal_hires
~PARAMETER INFORMATION
#MNEM.UNIT        VALUE       DESCRIPTION OF MNEMONIC
#---------    -------------   ------------------------------
~OTHER INFORMATION
~ASCII Log data section
# ...
  582.60    2.03 -999.25 -999.25 -999.25  20151203.062031     3.07    0.0000    0.0000    0.0000    0.0000    0.0000    0.0000    0.0000    0.122    0.00
  582.80    2.02 -999.25 -999.25 -999.25  20151203.062055     4.50    0.0000    0.0000    0.0000    0.0000    0.0000    0.0000    0.0000    0.141    0.00
  583.00    2.02 -999.25 -999.25 -999.25  20151203.062119     6.62    0.0000    0.0000    0.0000    0.0000    0.0000    0.0000    0.0000    0.185    0.00
  583.20    2.04 -999.25 -999.25 -999.25  20151203.062144    10.27    0.0000    0.0000    0.0000    0.0000    0.0000    0.0000    0.0000    0.254    0.00
  583.40    2.08 -999.25 -999.25 -999.25  20151203.062209    14.11    0.0000    0.0000    0.0000    0.0000    0.0000    0.0000    0.0000    0.310    0.00
  583.60    2.17 -999.25 -999.25 -999.25  20151203.062235     9.22    0.0000    0.0000    0.0000    0.0000    0.0000    0.0000    0.0000    0.240    0.00
  583.80    2.12 -999.25 -999.25 -999.25  20151203.062300     6.24    0.0000    0.0000    0.0000    0.0000    0.0000    0.0000    0.0000    0.187    0.00
  584.00    2.13 -999.25 -999.25 -999.25  20151203.062326     9.24    0.0000    0.0000    0.0000    0.0000    0.0000    0.0000    0.0000    0.230    0.00
  584.20    2.12 -999.25 -999.25 -999.25  20151203.062351    15.53    0.0000    0.0000    0.0000    0.0000    0.0000    0.0000    0.0000    0.363    0.00
  584.40   11.64 -999.25 -999.25 -999.25  20151203.064729     7.34    0.0000    0.0000    0.0000    0.0000    0.0000    0.0000    0.0000    0.144    0.00
  584.60    2.89 -999.25 -999.25 -999.25  20151203.064804    62.65    0.0000    0.0000    0.0000    0.0000    0.0000    0.0000    0.0000    0.498    0.00
  584.80    2.89 -999.25 -999.25 -999.25  20151203.064838    19.11    0.0000    0.0000    0.0000    0.0000    0.0000    0.0000    0.0000    0.576    0.00
  585.00    2.71 -999.25 -999.25 -999.25  20151203.064911    14.09    0.0000    0.0000    0.0000    0.0000    0.0000    0.0000    0.0000    0.468    0.00
  585.20    2.75 -999.25 -999.25 -999.25  20151203.064943     7.05    0.0000    0.0000    0.0000    0.0000    0.0000    0.0000    0.0000    0.313    0.00
  585.40    2.45 -999.25 -999.25 -999.25  20151203.065013    12.25    0.0000    0.0000    0.0000    0.0000    0.0000    0.0000    0.0000    0.440    0.00
  585.60    2.25 -999.25 -999.25 -999.25  20151203.065040    20.20    0.0000    0.0000    0.0000    0.0000    0.0000    0.0000    0.0000    0.418    0.00
  585.80    2.28 -999.25 -999.25 -999.25  20151203.065107    19.38    0.0000    0.0000    0.0000    0.0000    0.0000    0.0000    0.0000    0.419    0.00
  586.00    2.35 -999.25 -999.25 -999.25  20151203.065136     7.57    0.0000    0.0000    0.0000    0.0000    0.0000    0.0000    0.0000    0.202    0.00
  586.20    2.33 -999.25 -999.25 -999.25  20151203.065204     7.81    0.0000    0.0000    0.0000    0.0000    0.0000    0.0000    0.0000    0.197    0.00
  586.40    2.33 -999.25 -999.25 -999.25  20151203.065232     8.10    0.0000    0.0000    0.0000    0.0000    0.0000    0.0000    0.0000    0.197    0.00
  586.60    2.36 -999.25 -999.25 -999.25  20151203.065300    12.26    0.0000    0.0000    0.0000    0.0000    0.0000    0.0000    0.0000    0.262    0.00
  586.80    2.34 -999.25 -999.25 -999.25  20151203.065328    17.14    0.0000    0.0000    0.0000    0.0000    0.0000    0.0000    0.0000    0.333    0.00
  587.00    2.38 -999.25 -999.25 -999.25  20151203.065356    10.47    0.0000    0.0000    0.0000    0.0000    0.0000    0.0000    0.0000    0.235    0.00
  587.20    2.34 -999.25 -999.25 -999.25  20151203.065425     6.78    0.0000    0.0000    0.0000    0.0000    0.0000    0.0000    0.0000    0.176    0.00
  587.40    2.33 -999.25 -999.25 -999.25  20151203.065453     9.95    0.0000    0.0000    0.0000    0.0000    0.0000    0.0000    0.0000    0.230    0.00
  587.60    2.33 -999.25 -999.25 -999.25  20151203.065521    16.90    0.0000    0.0000    0.0000    0.0000    0.0000    0.0000    0.0000    0.332    0.00
  587.80    2.36 -999.25 -999.25 -999.25  20151203.065549    20.79    0.0000    0.0000    0.0000    0.0000    0.0000    0.0000    0.0000    0.385    0.00
  588.00    2.39 -999.25 -999.25 -999.25  20151203.065618    20.06    0.0000    0.0000    0.0000    0.0000    0.0000    0.0000    0.0000    0.373    0.00
  588.20    2.94 -999.25 -999.25 -999.25  20151203.065653    21.58    0.0000    0.0000    0.0000    0.0000    0.0000    0.0000    0.0000    0.376    0.00
  588.40    2.98 -999.25 -999.25 -999.25  20151203.065729    21.71    0.0000    0.0000    0.0000    0.0000    0.0000    0.0000    0.0000    0.336    0.00
  588.60    2.75 -999.25 -999.25 -999.25  20151203.065801     9.12    0.0000    0.0000    0.0000    0.0000    0.0000    0.0000    0.0000    0.196    0.00
  588.80    2.36 -999.25 -999.25 -999.25  20151203.065830     9.98    0.0000    0.0000    0.0000    0.0000    0.0000    0.0000    0.0000    0.242    0.00
  589.00    2.28 -999.25 -999.25 -999.25  20151203.065857    12.68    0.0000    0.0000    0.0000    0.0000    0.0000    0.0000    0.0000    0.326    0.00
  589.20    2.25 -999.25 -999.25 -999.25  20151203.065924    15.79    0.0000    0.0000    0.0000    0.0000    0.0000    0.0000    0.0000    0.374    0.00
  589.40    2.31 -999.25 -999.25 -999.25  20151203.065952    20.24    0.0000    0.0000    0.0000    0.0000    0.0000    0.0000    0.0000    0.417    0.00
  589.60    2.34 -999.25 -999.25 -999.25  20151203.070020    23.55    0.0000    0.0000    0.0000    0.0000    0.0000    0.0000    0.0000    0.427    0.00
  589.80    2.69 -999.25 -999.25 -999.25  20151203.070052    24.64    0.0000    0.0000    0.0000    0.0000    0.0000    0.0000    0.0000    0.412    0.00
  590.00    2.77 -999.25 -999.25 -999.25  20151203.070125    25.49    0.0000    0.0000    0.0000    0.0000    0.0000    0.0000    0.0000    0.385    0.00
  590.20    2.54 -999.25 -999.25 -999.25  20151203.070156    16.18    0.0000    0.0000    0.0000    0.0000    0.0000    0.0000    0.0000    0.289    0.00
  590.40    2.39 -999.25 -999.25 -999.25  20151203.070224     9.32    0.0000    0.0000    0.0000    0.0000    0.0000    0.0000    0.0000    0.218    0.00
  590.60    2.34 -999.25 -999.25 -999.25  20151203.070253    15.16    0.0000    0.0000    0.0000    0.0000    0.0000    0.0000    0.0000    0.317    0.00
  590.80    2.33 -999.25 -999.25 -999.25  20151203.070321    20.61    0.0000    0.0000    0.0000    0.0000    0.0000    0.0000    0.0000    0.404    0.00
  591.00    2.35 -999.25 -999.25 -999.25  20151203.070349    23.37    0.0000    0.0000    0.0000    0.0000    0.0000    0.0000    0.0000    0.426    0.00
  591.20    2.36 -999.25 -999.25 -999.25  20151203.070417    16.12    0.0000    0.0000    0.0000    0.0000    0.0000    0.0000    0.0000    0.312    0.00
  591.40    2.35 -999.25 -999.25 -999.25  20151203.070445     7.60    0.0000    0.0000    0.0000    0.0000    0.0000    0.0000    0.0000    0.181    0.00
  591.60    2.34 -999.25 -999.25 -999.25  20151203.070513    10.42    0.0000    0.0000    0.0000    0.0000    0.0000    0.0000    0.0000    0.232    0.00
  591.80    2.36 -999.25 -999.25 -999.25  20151203.070542    17.30    0.0000    0.0000    0.0000    0.0000    0.0000    0.0000    0.0000    0.337    0.00
  592.00    2.34 -999.25 -999.25 -999.25  20151203.070610    24.06    0.0000    0.0000    0.0000    0.0000    0.0000    0.0000    0.0000    0.419    0.00
  592.20    2.36 -999.25 -999.25 -999.25  20151203.070638    10.19    0.0000    0.0000    0.0000    0.0000    0.0000    0.0000    0.0000    0.244    0.00
  592.40    2.37 -999.25 -999.25 -999.25  20151203.070706     8.13    0.0000    0.0000    0.0000    0.0000    0.0000    0.0000    0.0000    0.199    0.00
  592.60    2.33 -999.25 -999.25 -999.25  20151203.070734    11.54    0.0000    0.0000    0.0000    0.0000    0.0000    0.0000    0.0000    0.252    0.00
  592.80    2.34 -999.25 -999.25 -999.25  20151203.070803    13.70    0.0000    0.0000    0.0000    0.0000    0.0000    0.0000    0.0000    0.289    0.00
