~VERSION INFORMATION
#
#File created by GEO-data Geological Wellsite Services GmbH.
#Parts or all of this file may be confidential.
#
# This is a "LAS" file containing logging data in ascii form.
#
 VERS.        2.0             :CWLS LOG ASCII STANDARD - VERSION 2.0
 WRAP.        NO              :Single line per depth step
~WELL INFORMATION
#MNEM.UNIT        DATA              DESCRIPTION OF MNEMONIC
#---------    -------------         ------------------------
 STRT.M       0.20            :Start DEPTH
 STOP.M       3038.00         :End DEPTH
 STEP.M       0.20            :DEPTH step
 NULL.        -999.25         :NULL VALUE
 COMP.        CLG             :COMPANY
 WELL.        Cal-GT-04       :WELL
 FLD .        Californie      :FIELD
 LOC .        Californie      :LOCATION
 PROV.        <no data>       :PROVINCE
 CNTY.        <no data>       :COUNTY
 STAT.        Niederlande     :STATE
 CTRY.        Niederlande     :COUNTRY
 SRVC.        GEO-data        :SERVICE COMPANY
 DATE.        08.02.2016      :DATE
 UWI .        {ADF187BD-5224-4002-B869-0B87FE3BAB56}:UNIQUE WELL ID
 API .        <no data>       :API NUMBER
 LBEG.        No ID entered   :(LBEG) well code
~CURVE INFORMATION
#MNEM.UNIT      API CODE      CURVE DESCRIPTION
#---------    -------------   ------------------------------
 DEPTH.M                      :depth
 ROP_2DM.MINPERM              :rop_2dm
 GAMMARAY_1.API               :gammaray_1
 GAMMARAY_2.API               :gammaray_2
 GAMMARAY_3.API               :gammaray_3
 CLOCKDATE.                   :Date/Time
 SPECIFICENERGY.KPSI          :specificenergy
 C1_HIRES.VOLPERCENT          :c1_hires
 C2_HIRES.VOLPERCENT          :c2_hires
 C3_HIRES.VOLPERCENT          :c3_hires
 NC4_HIRES.VOLPERCENT         :nc4_hires
 IC4_HIRES.VOLPERCENT         :ic4_hires
 NC5_HIRES.VOLPERCENT         :nc5_hires
 IC5_HIRES.VOLPERCENT         :ic5_hires
 MSE .KBAR                    :mse
 CTOTAL_HIRES.VOLPERCENT      :ctotal_hires
~PARAMETER INFORMATION
#MNEM.UNIT        VALUE       DESCRIPTION OF MNEMONIC
#---------    -------------   ------------------------------
~OTHER INFORMATION
~ASCII Log data section
# ...
 1144.20    3.75  167.29 -999.25 -999.25  20151212.021654    32.34    0.0000    0.0000    0.0000    0.0000    0.0000    0.0000    0.0000    1.716    0.03
 1144.40    3.83  146.64 -999.25 -999.25  20151212.021740    29.61    0.0000    0.0000    0.0000    0.0000    0.0000    0.0000    0.0000    1.671    0.03
 1144.60    3.75  159.03 -999.25 -999.25  20151212.021825    29.01    0.0000    0.0000    0.0000    0.0000    0.0000    0.0000    0.0000    1.658    0.03
 1144.80    3.83  167.29 -999.25 -999.25  20151212.021911    29.84    0.0000    0.0000    0.0000    0.0000    0.0000    0.0000    0.0000    1.869    0.03
 1145.00    3.33  171.42 -999.25 -999.25  20151212.021951    33.52    0.0000    0.0000    0.0000    0.0000    0.0000    0.0000    0.0000    1.455    0.03
 1145.20    3.33  159.03 -999.25 -999.25  20151212.022031    29.41    0.0000    0.0000    0.0000    0.0000    0.0000    0.0000    0.0000    1.537    0.03
 1145.40    3.33  179.68 -999.25 -999.25  20151212.022111    26.67    0.0000    0.0000    0.0000    0.0000    0.0000    0.0000    0.0000    1.301    0.03
 1145.60    3.33  173.48 -999.25 -999.25  20151212.022151    27.16    0.0000    0.0000    0.0000    0.0000    0.0000    0.0000    0.0000    1.262    0.03
 1145.80    3.17  179.68 -999.25 -999.25  20151212.022229    27.15    0.0000    0.0000    0.0000    0.0000    0.0000    0.0000    0.0000    1.242    0.03
 1146.00    2.92  167.29 -999.25 -999.25  20151212.022304    26.37    0.0000    0.0000    0.0000    0.0000    0.0000    0.0000    0.0000    1.206    0.03
 1146.20    2.74  167.29 -999.25 -999.25  20151212.022337    25.29    0.0000    0.0000    0.0000    0.0000    0.0000    0.0000    0.0000    1.217    0.03
 1146.40    2.59  171.42 -999.25 -999.25  20151212.022408    23.90    0.0000    0.0000    0.0000    0.0000    0.0000    0.0000    0.0000    1.187    0.03
 1146.60    2.67  154.90 -999.25 -999.25  20151212.022440    22.85    0.0000    0.0000    0.0000    0.0000    0.0000    0.0000    0.0000    1.124    0.03
 1146.80    2.67  163.16 -999.25 -999.25  20151212.022512    23.48    0.0000    0.0000    0.0000    0.0000    0.0000    0.0000    0.0000    1.089    0.07
 1147.00    2.67  165.22 -999.25 -999.25  20151212.022544    23.45    0.0000    0.0000    0.0000    0.0000    0.0000    0.0000    0.0000    1.056    0.07
 1147.20    2.63  165.22 -999.25 -999.25  20151212.022616    23.10    0.0000    0.0000    0.0000    0.0000    0.0000    0.0000    0.0000    1.020    0.07
 1147.40    2.66 -999.25 -999.25 -999.25  20151212.022648    22.87    0.0000    0.0000    0.0000    0.0000    0.0000    0.0000    0.0000    1.005    0.07
 1147.60    2.62  175.55 -999.25 -999.25  20151212.022719    23.27    0.0000    0.0000    0.0000    0.0000    0.0000    0.0000    0.0000    0.997    0.07
 1147.80    2.67  152.83 -999.25 -999.25  20151212.022751    23.46    0.0000    0.0000    0.0000    0.0000    0.0000    0.0000    0.0000    1.016    0.07
 1148.00    2.66 -999.25 -999.25 -999.25  20151212.022823    24.23    0.0000    0.0000    0.0000    0.0000    0.0000    0.0000    0.0000    1.030    0.07
 1148.20    2.51  173.48 -999.25 -999.25  20151212.022853    24.00    0.0000    0.0000    0.0000    0.0000    0.0000    0.0000    0.0000    1.057    0.07
 1148.40    2.75  161.09 -999.25 -999.25  20151212.022926    22.82    0.0000    0.0000    0.0000    0.0000    0.0000    0.0000    0.0000    1.059    0.07
 1148.60    2.67  169.35 -999.25 -999.25  20151212.022958    24.48    0.0000    0.0000    0.0000    0.0000    0.0000    0.0000    0.0000    1.006    0.07
 1148.80    2.67  167.29 -999.25 -999.25  20151212.023030    24.81    0.0000    0.0000    0.0000    0.0000    0.0000    0.0000    0.0000    1.052    0.07
 1149.00    2.67  179.68 -999.25 -999.25  20151212.023102    24.22    0.0000    0.0000    0.0000    0.0000    0.0000    0.0000    0.0000    1.026    0.07
 1149.20    2.65  161.09 -999.25 -999.25  20151212.023134    24.29    0.0000    0.0000    0.0000    0.0000    0.0000    0.0000    0.0000    1.023    0.10
 1149.40    2.60  165.22 -999.25 -999.25  20151212.023205    23.99    0.0000    0.0000    0.0000    0.0000    0.0000    0.0000    0.0000    1.026    0.10
 1149.60    2.67  163.16 -999.25 -999.25  20151212.023237    23.40    0.0000    0.0000    0.0000    0.0000    0.0000    0.0000    0.0000    1.008    0.10
 1149.80    2.67  163.16 -999.25 -999.25  20151212.023309    24.30    0.0000    0.0000    0.0000    0.0000    0.0000    0.0000    0.0000    1.017    0.10
 1150.00    2.67  177.62 -999.25 -999.25  20151212.023341    24.17    0.0000    0.0000    0.0000    0.0000    0.0000    0.0000    0.0000    1.027    0.10
 1150.20    2.64 -999.25 -999.25 -999.25  20151212.023413    23.41    0.0000    0.0000    0.0000    0.0000    0.0000    0.0000    0.0000    0.983    0.10
 1150.40    2.61  179.68 -999.25 -999.25  20151212.023444    23.19    0.0000    0.0000    0.0000    0.0000    0.0000    0.0000    0.0000    1.006    0.10
 1150.60    2.67  159.03 -999.25 -999.25  20151212.023516    24.21    0.0000    0.0000    0.0000    0.0000    0.0000    0.0000    0.0000    1.017    0.11
 1150.80    2.67  163.16 -999.25 -999.25  20151212.023548    25.06    0.0000    0.0000    0.0000    0.0000    0.0000    0.0000    0.0000    1.030    0.14
 1151.00    2.64  159.03 -999.25 -999.25  20151212.023620    24.06    0.0000    0.0000    0.0000    0.0000    0.0000    0.0000    0.0000    0.998    0.11
 1151.20    2.51 -999.25 -999.25 -999.25  20151212.023650    24.24    0.0000    0.0000    0.0000    0.0000    0.0000    0.0000    0.0000    0.995    0.14
 1151.40    2.78  175.55 -999.25 -999.25  20151212.023724    22.95    0.0000    0.0000    0.0000    0.0000    0.0000    0.0000    0.0000    0.987    0.13
 1151.60    2.65  177.62 -999.25 -999.25  20151212.023755    25.26    0.0000    0.0000    0.0000    0.0000    0.0000    0.0000    0.0000    1.010    0.14
 1151.80    2.67  173.48 -999.25 -999.25  20151212.023827    23.94    0.0000    0.0000    0.0000    0.0000    0.0000    0.0000    0.0000    0.999    0.14
 1152.00    2.66  154.90 -999.25 -999.25  20151212.023859    24.24    0.0000    0.0000    0.0000    0.0000    0.0000    0.0000    0.0000    0.986    0.14
 1152.20    2.66  152.83 -999.25 -999.25  20151212.023931    24.16    0.0000    0.0000    0.0000    0.0000    0.0000    0.0000    0.0000    0.993    0.14
 1152.40    2.60  154.90 -999.25 -999.25  20151212.024002    24.33    0.0000    0.0000    0.0000    0.0000    0.0000    0.0000    0.0000    1.018    0.14
 1152.60    2.67  163.16 -999.25 -999.25  20151212.024034    23.43    0.0000    0.0000    0.0000    0.0000    0.0000    0.0000    0.0000    0.991    0.14
 1152.80    2.67  175.55 -999.25 -999.25  20151212.024106    24.16    0.0000    0.0000    0.0000    0.0000    0.0000    0.0000    0.0000    0.984    0.14
 1153.00    2.65  165.22 -999.25 -999.25  20151212.024138    24.17    0.0000    0.0000    0.0000    0.0000    0.0000    0.0000    0.0000    1.007    0.15
 1153.20    2.66  165.22 -999.25 -999.25  20151212.024210    23.90    0.0000    0.0000    0.0000    0.0000    0.0000    0.0000    0.0000    0.995    0.15
 1153.40    2.61  173.48 -999.25 -999.25  20151212.024241    23.76    0.0000    0.0000    0.0000    0.0000    0.0000    0.0000    0.0000    0.993    0.14
 1153.60    2.67   80.55 -999.25 -999.25  20151212.024313    23.75    0.0000    0.0000    0.0000    0.0000    0.0000    0.0000    0.0000    1.025    0.03
 1153.80    2.62  173.48 -999.25 -999.25  20151212.024345    25.64    0.0000    0.0000    0.0000    0.0000    0.0000    0.0000    0.0000    1.046    0.04
 1154.00    2.69  159.03 -999.25 -999.25  20151212.024417    25.03    0.0000    0.0000    0.0000    0.0000    0.0000    0.0000    0.0000    1.043    0.04
 1154.20    2.66 -999.25 -999.25 -999.25  20151212.024449    24.77    0.0000    0.0000    0.0000    0.0000    0.0000    0.0000    0.0000    1.018    0.07
 1154.40    2.64  175.55 -999.25 -999.25  20151212.024521    24.53    0.0000    0.0000    0.0000    0.0000    0.0000    0.0000    0.0000    1.024    0.07
