~VERSION INFORMATION
#
#File created by GEO-data Geological Wellsite Services GmbH.
#Parts or all of this file may be confidential.
#
# This is a "LAS" file containing logging data in ascii form.
#
 VERS.        2.0             :CWLS LOG ASCII STANDARD - VERSION 2.0
 WRAP.        NO              :Single line per depth step
~WELL INFORMATION
#MNEM.UNIT        DATA              DESCRIPTION OF MNEMONIC
#---------    -------------         ------------------------
 STRT.M       0.20            :Start DEPTH
 STOP.M       3038.00         :End DEPTH
 STEP.M       0.20            :DEPTH step
 NULL.        -999.25         :NULL VALUE
 COMP.        CLG             :COMPANY
 WELL.        Cal-GT-04       :WELL
 FLD .        Californie      :FIELD
 LOC .        Californie      :LOCATION
 PROV.        <no data>       :PROVINCE
 CNTY.        <no data>       :COUNTY
 STAT.        Niederlande     :STATE
 CTRY.        Niederlande     :COUNTRY
 SRVC.        GEO-data        :SERVICE COMPANY
 DATE.        08.02.2016      :DATE
 UWI .        {ADF187BD-5224-4002-B869-0B87FE3BAB56}:UNIQUE WELL ID
 API .        <no data>       :API NUMBER
 LBEG.        No ID entered   :(LBEG) well code
~CURVE INFORMATION
#MNEM.UNIT      API CODE      CURVE DESCRIPTION
#---------    -------------   ------------------------------
 DEPTH.M                      :depth
 ROP_2DM.MINPERM              :rop_2dm
 GAMMARAY_1.API               :gammaray_1
 GAMMARAY_2.API               :gammaray_2
 GAMMARAY_3.API               :gammaray_3
 CLOCKDATE.                   :Date/Time
 SPECIFICENERGY.KPSI          :specificenergy
 C1_HIRES.VOLPERCENT          :c1_hires
 C2_HIRES.VOLPERCENT          :c2_hires
 C3_HIRES.VOLPERCENT          :c3_hires
 NC4_HIRES.VOLPERCENT         :nc4_hires
 IC4_HIRES.VOLPERCENT         :ic4_hires
 NC5_HIRES.VOLPERCENT         :nc5_hires
 IC5_HIRES.VOLPERCENT         :ic5_hires
 MSE .KBAR                    :mse
 CTOTAL_HIRES.VOLPERCENT      :ctotal_hires
~PARAMETER INFORMATION
#MNEM.UNIT        VALUE       DESCRIPTION OF MNEMONIC
#---------    -------------   ------------------------------
~OTHER INFORMATION
~ASCII Log data section
# ...
 2839.40   16.58   38.00   39.57 -999.25  20160115.201337   412.77    0.0000    0.0000    0.0000    0.0000    0.0000    0.0000    0.0000   78.670    0.00
 2839.60   11.48   22.00   31.43 -999.25  20160115.201553   295.03    0.0000    0.0000    0.0000    0.0000    0.0000    0.0000    0.0000   68.518    0.00
 2839.80   10.40   25.00   28.71 -999.25  20160115.201759   201.47    0.0000    0.0000    0.0000    0.0000    0.0000    0.0000    0.0000   63.596    0.00
 2840.00    9.14   36.00   34.29 -999.25  20160115.201949   175.94    0.0000    0.0000    0.0000    0.0000    0.0000    0.0000    0.0000   59.640    0.00
 2840.20    5.75   54.00   47.00 -999.25  20160115.202058   130.27    0.0000    0.0000    0.0000    0.0000    0.0000    0.0000    0.0000   49.671    0.00
 2840.40    9.58   72.00   59.57 -999.25  20160115.202253    99.70    0.0000    0.0000    0.0000    0.0000    0.0000    0.0000    0.0000   37.305    0.00
 2840.60   15.50   76.00   71.43 -999.25  20160115.202559   180.72    0.0000    0.0000    0.0000    0.0000    0.0000    0.0000    0.0000   32.191    0.00
 2840.80   13.67   88.00   78.00 -999.25  20160115.202843   285.11    0.0000    0.0000    0.0000    0.0000    0.0000    0.0000    0.0000   35.434    0.00
 2841.00   12.58   84.00   84.00 -999.25  20160115.203114   248.25    0.0000    0.0000    0.0000    0.0000    0.0000    0.0000    0.0000   37.825    0.00
 2841.20   15.63   90.00   89.78 -999.25  20160115.203421   237.09    0.0000    0.0000    0.0000    0.0000    0.0000    0.0000    0.0000   40.239    0.00
 2841.40   17.65   86.00   92.00 -999.25  20160115.203752   298.64    0.0000    0.0000    0.0000    0.0000    0.0000    0.0000    0.0000   47.056    0.00
 2841.60   24.42  102.00   94.75 -999.25  20160115.204247   348.94    0.0000    0.0000    0.0000    0.0000    0.0000    0.0000    0.0000   52.085    0.00
 2841.80   24.32   90.00   92.86 -999.25  20160115.204737   481.43    0.0000    0.0000    0.0000    0.0000    0.0000    0.0000    0.0000   58.302    0.00
 2842.00   17.83  116.00   94.29 -999.25  20160115.205111   464.65    0.0000    0.0000    0.0000    0.0000    0.0000    0.0000    0.0000   66.507    0.00
 2842.20   19.64   96.00   93.43 -999.25  20160115.205506   344.85    0.0000    0.0000    0.0000    0.0000    0.0000    0.0000    0.0000   70.204    0.01
 2842.40   19.23   88.00   95.25 -999.25  20160115.205859   378.67    0.0000    0.0000    0.0000    0.0000    0.0000    0.0000    0.0000   72.833    0.00
 2842.60   15.38   90.00   96.00 -999.25  20160115.210203   360.26    0.0000    0.0000    0.0000    0.0000    0.0000    0.0000    0.0000   74.398    0.00
 2842.80   20.11   84.00  101.60 -999.25  20160115.210605   298.50    0.0000    0.0000    0.0000    0.0000    0.0000    0.0000    0.0000   67.142    0.00
 2843.00   21.92  116.00  108.18 -999.25  20160115.211024   392.52    0.0000    0.0000    0.0000    0.0000    0.0000    0.0000    0.0000   64.623    0.00
 2843.20   23.67  116.00  108.91 -999.25  20160115.211508   431.35    0.0000    0.0000    0.0000    0.0000    0.0000    0.0000    0.0000   67.453    0.00
 2843.40   15.35  134.00  112.67 -999.25  20160115.211815   443.55    0.0000    0.0000    0.0000    0.0000    0.0000    0.0000    0.0000   71.331    0.00
 2843.60   19.96  126.00  112.00 -999.25  20160115.212213   297.60    0.0000    0.0000    0.0000    0.0000    0.0000    0.0000    0.0000   67.659    0.00
 2843.80   19.04  104.00  113.14 -999.25  20160115.212603   384.55    0.0000    0.0000    0.0000    0.0000    0.0000    0.0000    0.0000   71.004    0.00
 2844.00   14.90  108.00  112.86 -999.25  20160115.212859   352.95    0.0000    0.0000    0.0000    0.0000    0.0000    0.0000    0.0000   70.520    0.00
 2844.20   29.87  116.00  115.75 -999.25  20160115.213503   298.42    0.0000    0.0000    0.0000    0.0000    0.0000    0.0000    0.0000   64.256    0.00
 2844.40   20.42  106.00  114.75 -999.25  20160115.214427   550.89    0.0000    0.0000    0.0000    0.0000    0.0000    0.0000    0.0000   70.043    0.00
 2844.60   26.67  108.00  112.00 -999.25  20160115.214947   406.56    0.0000    0.0000    0.0000    0.0000    0.0000    0.0000    0.0000   73.251    0.00
 2844.80   24.17   92.00  104.29 -999.25  20160115.215437   524.90    0.0000    0.0000    0.0000    0.0000    0.0000    0.0000    0.0000   78.625    0.00
 2845.00   15.58   80.00   93.71 -999.25  20160115.215744   353.87    0.0000    0.0000    0.0000    0.0000    0.0000    0.0000    0.0000   84.688    0.00
 2845.20   10.78   94.00   92.57 -999.25  20160115.215953   251.83    0.0000    0.0000    0.0000    0.0000    0.0000    0.0000    0.0000   82.881    0.00
 2845.40   14.46   82.00   95.71 -999.25  20160115.220247   190.21    0.0000    0.0000    0.0000    0.0000    0.0000    0.0000    0.0000   69.781    0.00
 2845.60   22.53  106.00   97.43 -999.25  20160115.220714   269.80    0.0000    0.0000    0.0000    0.0000    0.0000    0.0000    0.0000   64.806    0.00
 2845.80   15.39   96.00  100.29 -999.25  20160115.221021   399.42    0.0000    0.0000    0.0000    0.0000    0.0000    0.0000    0.0000   62.467    0.00
 2846.00   14.54  120.00  102.86 -999.25  20160115.221315   270.56    0.0000    0.0000    0.0000    0.0000    0.0000    0.0000    0.0000   56.037    0.00
 2846.20   20.60  116.00  110.00 -999.25  20160115.221723   269.10    0.0000    0.0000    0.0000    0.0000    0.0000    0.0000    0.0000   54.547    0.00
 2846.40   23.50  126.00  113.71 -999.25  20160115.222205   385.73    0.0000    0.0000    0.0000    0.0000    0.0000    0.0000    0.0000   61.227    0.00
 2846.60   24.14  106.00  113.75 -999.25  20160115.222651   440.39    0.0000    0.0000    0.0000    0.0000    0.0000    0.0000    0.0000   67.862    0.00
 2846.80   37.86  112.00  104.00 -999.25  20160115.223431   469.57    0.0000    0.0000    0.0000    0.0000    0.0000    0.0000    0.0000   68.275    0.00
 2847.00   25.65   92.00   94.44 -999.25  20160115.223935   712.63    0.0000    0.0000    0.0000    0.0000    0.0000    0.0000    0.0000   85.494    0.00
 2847.20   12.84   80.00   80.67 -999.25  20160115.224211   440.19    0.0000    0.0000    0.0000    0.0000    0.0000    0.0000    0.0000   94.405    0.00
 2847.40   14.83   70.00   74.00 -999.25  20160115.224509   226.58    0.0000    0.0000    0.0000    0.0000    0.0000    0.0000    0.0000   87.626    0.00
 2847.60   31.67   78.00   74.25 -999.25  20160115.235240   204.91    0.0000    0.0000    0.0000    0.0000    0.0000    0.0000    0.0000   82.859    0.00
 2847.80   10.75   82.00   72.29 -999.25  20160115.235449   496.89    0.0000    0.0000    0.0000    0.0000    0.0000    0.0000    0.0000   89.379    0.00
 2848.00   22.42   80.00   73.14 -999.25  20160115.235918   204.70    0.0000    0.0000    0.0000    0.0000    0.0000    0.0000    0.0000   67.773    0.00
 2848.20   15.90   72.00   70.86 -999.25  20160116.000227   407.91    0.0000    0.0000    0.0000    0.0000    0.0000    0.0000    0.0000   66.295    0.00
 2848.40   11.23   68.00   68.00 -999.25  20160116.000543   403.72    0.0000    0.0000    0.0000    0.0000    0.0000    0.0000    0.0000   68.062    0.00
 2848.60   12.17   74.00   70.57 -999.25  20160116.000809   284.49    0.0000    0.0000    0.0000    0.0000    0.0000    0.0000    0.0000   66.009    0.00
 2848.80   11.25   80.00   77.71 -999.25  20160116.001024   304.51    0.0000    0.0000    0.0000    0.0000    0.0000    0.0000    0.0000   52.076    0.00
 2849.00    8.00   78.00   82.29 -999.25  20160116.001200   265.47    0.0000    0.0000    0.0000    0.0000    0.0000    0.0000    0.0000   53.331    0.00
 2849.20   14.17   72.00   83.14 -999.25  20160116.001450   207.20    0.0000    0.0000    0.0000    0.0000    0.0000    0.0000    0.0000   41.139    0.00
 2849.40   11.83   18.00   83.14 -999.25  20160116.001712   356.54    0.0000    0.0000    0.0000    0.0000    0.0000    0.0000    0.0000   40.395    0.00
 2849.60   11.33   96.00   86.29 -999.25  20160116.001928   297.00    0.0000    0.0000    0.0000    0.0000    0.0000    0.0000    0.0000   40.687    0.00
