~VERSION INFORMATION
#
#File created by GEO-data Geological Wellsite Services GmbH.
#Parts or all of this file may be confidential.
#
# This is a "LAS" file containing logging data in ascii form.
#
 VERS.        2.0             :CWLS LOG ASCII STANDARD - VERSION 2.0
 WRAP.        NO              :Single line per depth step
~WELL INFORMATION
#MNEM.UNIT        DATA              DESCRIPTION OF MNEMONIC
#---------    -------------         ------------------------
 STRT.M       0.20            :Start DEPTH
 STOP.M       3038.00         :End DEPTH
 STEP.M       0.20            :DEPTH step
 NULL.        -999.25         :NULL VALUE
 COMP.        CLG             :COMPANY
 WELL.        Cal-GT-04       :WELL
 FLD .        Californie      :FIELD
 LOC .        Californie      :LOCATION
 PROV.        <no data>       :PROVINCE
 CNTY.        <no data>       :COUNTY
 STAT.        Niederlande     :STATE
 CTRY.        Niederlande     :COUNTRY
 SRVC.        GEO-data        :SERVICE COMPANY
 DATE.        08.02.2016      :DATE
 UWI .        {ADF187BD-5224-4002-B869-0B87FE3BAB56}:UNIQUE WELL ID
 API .        <no data>       :API NUMBER
 LBEG.        No ID entered   :(LBEG) well code
~CURVE INFORMATION
#MNEM.UNIT      API CODE      CURVE DESCRIPTION
#---------    -------------   ------------------------------
 DEPTH.M                      :depth
 ROP_2DM.MINPERM              :rop_2dm
 GAMMARAY_1.API               :gammaray_1
 GAMMARAY_2.API               :gammaray_2
 GAMMARAY_3.API               :gammaray_3
 CLOCKDATE.                   :Date/Time
 SPECIFICENERGY.KPSI          :specificenergy
 C1_HIRES.VOLPERCENT          :c1_hires
 C2_HIRES.VOLPERCENT          :c2_hires
 C3_HIRES.VOLPERCENT          :c3_hires
 NC4_HIRES.VOLPERCENT         :nc4_hires
 IC4_HIRES.VOLPERCENT         :ic4_hires
 NC5_HIRES.VOLPERCENT         :nc5_hires
 IC5_HIRES.VOLPERCENT         :ic5_hires
 MSE .KBAR                    :mse
 CTOTAL_HIRES.VOLPERCENT      :ctotal_hires
~PARAMETER INFORMATION
#MNEM.UNIT        VALUE       DESCRIPTION OF MNEMONIC
#---------    -------------   ------------------------------
~OTHER INFORMATION
~ASCII Log data section
# ...
 1716.20    6.75  165.22 -999.25 -999.25  20151215.052643    43.31 -999.2500 -999.2500 -999.2500 -999.2500 -999.2500 -999.2500 -999.2500    3.961 -999.25
 1716.40    6.67 -999.25 -999.25 -999.25  20151215.052803    50.22 -999.2500 -999.2500 -999.2500 -999.2500 -999.2500 -999.2500 -999.2500    3.967 -999.25
 1716.60    6.67  159.03 -999.25 -999.25  20151215.052923    53.26    0.0000    0.0000    0.0000    0.0000    0.0000    0.0000    0.0000    4.058    0.04
 1716.80    6.75  152.83 -999.25 -999.25  20151215.053044    54.24    0.0000    0.0000    0.0000    0.0000    0.0000    0.0000    0.0000    3.995    0.04
 1717.00    6.67  177.62 -999.25 -999.25  20151215.053204    53.77    0.0000    0.0000    0.0000    0.0000    0.0000    0.0000    0.0000    4.032    0.04
 1717.20    6.67  159.03 -999.25 -999.25  20151215.053324    50.56    0.0000    0.0000    0.0000    0.0000    0.0000    0.0000    0.0000    4.024    0.04
 1717.40    6.75  169.35 -999.25 -999.25  20151215.053445    48.83    0.0000    0.0000    0.0000    0.0000    0.0000    0.0000    0.0000    3.952    0.04
 1717.60    6.67  154.90 -999.25 -999.25  20151215.053605    49.85    0.0000    0.0000    0.0000    0.0000    0.0000    0.0000    0.0000    3.748    0.04
 1717.80    6.75  173.48 -999.25 -999.25  20151215.053726    49.97    0.0000    0.0000    0.0000    0.0000    0.0000    0.0000    0.0000    3.814    0.03
 1718.00    6.67  150.77 -999.25 -999.25  20151215.053846    52.47    0.0000    0.0000    0.0000    0.0000    0.0000    0.0000    0.0000    3.790    0.03
 1718.20    6.75  159.03 -999.25 -999.25  20151215.054007    52.54    0.0000    0.0000    0.0000    0.0000    0.0000    0.0000    0.0000    3.810    0.03
 1718.40    6.83  163.16 -999.25 -999.25  20151215.054129    54.05    0.0000    0.0000    0.0000    0.0000    0.0000    0.0000    0.0000    3.843    0.02
 1718.60    7.17  163.16 -999.25 -999.25  20151215.054255    53.36    0.0000    0.0000    0.0000    0.0000    0.0000    0.0000    0.0000    3.883    0.00
 1718.80    7.02 -999.25 -999.25 -999.25  20151215.054420    55.85    0.0000    0.0000    0.0000    0.0000    0.0000    0.0000    0.0000    3.953    0.01
 1719.00    7.24  154.90 -999.25 -999.25  20151215.054546    53.05    0.0000    0.0000    0.0000    0.0000    0.0000    0.0000    0.0000    3.746    0.01
 1719.20    7.17  142.51 -999.25 -999.25  20151215.054712    55.95    0.0000    0.0000    0.0000    0.0000    0.0000    0.0000    0.0000    3.754    0.01
 1719.40    7.17  154.90 -999.25 -999.25  20151215.054838    63.42    0.0000    0.0000    0.0000    0.0000    0.0000    0.0000    0.0000    3.875    0.01
 1719.60    7.17  142.51 -999.25 -999.25  20151215.055004    63.55    0.0000    0.0000    0.0000    0.0000    0.0000    0.0000    0.0000    4.085    0.01
 1719.80    7.08  167.29 -999.25 -999.25  20151215.055129    57.84    0.0000    0.0000    0.0000    0.0000    0.0000    0.0000    0.0000    4.211    0.01
 1720.00    7.17  173.48 -999.25 -999.25  20151215.055255    53.09    0.0000    0.0000    0.0000    0.0000    0.0000    0.0000    0.0000    4.229    0.01
 1720.20    7.17  154.90 -999.25 -999.25  20151215.055421    53.31    0.0000    0.0000    0.0000    0.0000    0.0000    0.0000    0.0000    4.239    0.01
 1720.40    7.17  152.83 -999.25 -999.25  20151215.055547    54.92    0.0000    0.0000    0.0000    0.0000    0.0000    0.0000    0.0000    4.235    0.01
 1720.60    7.17  138.37 -999.25 -999.25  20151215.055713    55.88    0.0000    0.0000    0.0000    0.0000    0.0000    0.0000    0.0000    4.229    0.01
 1720.80    7.92  144.57 -999.25 -999.25  20151215.055848    64.25    0.0000    0.0000    0.0000    0.0000    0.0000    0.0000    0.0000    4.231    0.02
 1721.00    9.00  148.70 -999.25 -999.25  20151215.060036    70.86    0.0000    0.0000    0.0000    0.0000    0.0000    0.0000    0.0000    4.387    0.02
 1721.20    9.00  130.11 -999.25 -999.25  20151215.060224    77.36    0.0000    0.0000    0.0000    0.0000    0.0000    0.0000    0.0000    4.517    0.02
 1721.40    9.83  119.79 -999.25 -999.25  20151215.060422    82.98    0.0000    0.0000    0.0000    0.0000    0.0000    0.0000    0.0000    4.678    0.02
 1721.60    0.21  136.31 -999.25 -999.25  20151215.060718     0.02    0.0000    0.0000    0.0000    0.0000    0.0000    0.0000    0.0000    0.047    0.02
 1721.80   23.95  165.22 -999.25 -999.25  20151215.063506     2.15    0.0000    0.0000    0.0000    0.0000    0.0000    0.0000    0.0000    3.652    0.03
 1722.00    7.08  152.83 -999.25 -999.25  20151215.063631   200.57    0.0000    0.0000    0.0000    0.0000    0.0000    0.0000    0.0000    6.068    0.03
 1722.20    9.75  156.96 -999.25 -999.25  20151215.063828    53.58    0.0000    0.0000    0.0000    0.0000    0.0000    0.0000    0.0000    5.691    0.03
 1722.40    9.67  152.83 -999.25 -999.25  20151215.064024    70.12    0.0000    0.0000    0.0000    0.0000    0.0000    0.0000    0.0000    5.772    0.03
 1722.60    9.25  171.42 -999.25 -999.25  20151215.064215    71.60    0.0000    0.0000    0.0000    0.0000    0.0000    0.0000    0.0000    5.693    0.03
 1722.80    7.92 -999.25 -999.25 -999.25  20151215.064350    75.37    0.0000    0.0000    0.0000    0.0000    0.0000    0.0000    0.0000    7.018    0.03
 1723.00    8.00  144.57 -999.25 -999.25  20151215.064526    64.75    0.0000    0.0000    0.0000    0.0000    0.0000    0.0000    0.0000    5.109    0.03
 1723.20    7.75  156.96 -999.25 -999.25  20151215.064659    64.25    0.0000    0.0000    0.0000    0.0000    0.0000    0.0000    0.0000    5.116    0.03
 1723.40    7.33 -999.25 -999.25 -999.25  20151215.064827    63.09    0.0000    0.0000    0.0000    0.0000    0.0000    0.0000    0.0000    5.056    0.03
 1723.60    7.25  154.90 -999.25 -999.25  20151215.064954    57.86    0.0000    0.0000    0.0000    0.0000    0.0000    0.0000    0.0000    4.658    0.02
 1723.80    7.33  169.35 -999.25 -999.25  20151215.065122    58.38    0.0000    0.0000    0.0000    0.0000    0.0000    0.0000    0.0000    4.397    0.03
 1724.00    7.33  150.77 -999.25 -999.25  20151215.065250    51.99    0.0000    0.0000    0.0000    0.0000    0.0000    0.0000    0.0000    3.708    0.03
 1724.20    7.25  146.64 -999.25 -999.25  20151215.065417    51.51    0.0000    0.0000    0.0000    0.0000    0.0000    0.0000    0.0000    3.577    0.03
 1724.40    7.33  142.51 -999.25 -999.25  20151215.065545    50.68    0.0000    0.0000    0.0000    0.0000    0.0000    0.0000    0.0000    3.551    0.03
 1724.60    7.92  152.83 -999.25 -999.25  20151215.065720    52.90    0.0000    0.0000    0.0000    0.0000    0.0000    0.0000    0.0000    3.533    0.03
 1724.80    8.66  146.64 -999.25 -999.25  20151215.065912    55.65    0.0000    0.0000    0.0000    0.0000    0.0000    0.0000    0.0000    3.596    0.03
 1725.00   10.48  146.64 -999.25 -999.25  20151215.070108    56.20    0.0000    0.0000    0.0000    0.0000    0.0000    0.0000    0.0000    3.628    0.03
 1725.20    9.75  142.51 -999.25 -999.25  20151215.070305    78.96    0.0000    0.0000    0.0000    0.0000    0.0000    0.0000    0.0000    4.503    0.03
 1725.40   10.42  169.35 -999.25 -999.25  20151215.070510    70.43    0.0000    0.0000    0.0000    0.0000    0.0000    0.0000    0.0000    4.713    0.03
 1725.60   12.25  144.57 -999.25 -999.25  20151215.070737    64.41    0.0000    0.0000    0.0000    0.0000    0.0000    0.0000    0.0000    4.373    0.03
 1725.80   12.33  156.96 -999.25 -999.25  20151215.071005    75.84    0.0000    0.0000    0.0000    0.0000    0.0000    0.0000    0.0000    4.757    0.03
 1726.00   12.25  152.83 -999.25 -999.25  20151215.071232    79.24    0.0000    0.0000    0.0000    0.0000    0.0000    0.0000    0.0000    5.050    0.03
 1726.20   12.25  167.29 -999.25 -999.25  20151215.071459    79.33    0.0000    0.0000    0.0000    0.0000    0.0000    0.0000    0.0000    5.243    0.03
 1726.40   12.33  152.83 -999.25 -999.25  20151215.071727    78.18    0.0000    0.0000    0.0000    0.0000    0.0000    0.0000    0.0000    5.513    0.03
