~VERSION INFORMATION
#
#File created by GEO-data Geological Wellsite Services GmbH.
#Parts or all of this file may be confidential.
#
# This is a "LAS" file containing logging data in ascii form.
#
 VERS.        2.0             :CWLS LOG ASCII STANDARD - VERSION 2.0
 WRAP.        NO              :Single line per depth step
~WELL INFORMATION
#MNEM.UNIT        DATA              DESCRIPTION OF MNEMONIC
#---------    -------------         ------------------------
 STRT.M       0.20            :Start DEPTH
 STOP.M       3038.00         :End DEPTH
 STEP.M       0.20            :DEPTH step
 NULL.        -999.25         :NULL VALUE
 COMP.        CLG             :COMPANY
 WELL.        Cal-GT-04       :WELL
 FLD .        Californie      :FIELD
 LOC .        Californie      :LOCATION
 PROV.        <no data>       :PROVINCE
 CNTY.        <no data>       :COUNTY
 STAT.        Niederlande     :STATE
 CTRY.        Niederlande     :COUNTRY
 SRVC.        GEO-data        :SERVICE COMPANY
 DATE.        08.02.2016      :DATE
 UWI .        {ADF187BD-5224-4002-B869-0B87FE3BAB56}:UNIQUE WELL ID
 API .        <no data>       :API NUMBER
 LBEG.        No ID entered   :(LBEG) well code
~CURVE INFORMATION
#MNEM.UNIT      API CODE      CURVE DESCRIPTION
#---------    -------------   ------------------------------
 DEPTH.M                      :depth
 ROP_2DM.MINPERM              :rop_2dm
 GAMMARAY_1.API               :gammaray_1
 GAMMARAY_2.API               :gammaray_2
 GAMMARAY_3.API               :gammaray_3
 CLOCKDATE.                   :Date/Time
 SPECIFICENERGY.KPSI          :specificenergy
 C1_HIRES.VOLPERCENT          :c1_hires
 C2_HIRES.VOLPERCENT          :c2_hires
 C3_HIRES.VOLPERCENT          :c3_hires
 NC4_HIRES.VOLPERCENT         :nc4_hires
 IC4_HIRES.VOLPERCENT         :ic4_hires
 NC5_HIRES.VOLPERCENT         :nc5_hires
 IC5_HIRES.VOLPERCENT         :ic5_hires
 MSE .KBAR                    :mse
 CTOTAL_HIRES.VOLPERCENT      :ctotal_hires
~PARAMETER INFORMATION
#MNEM.UNIT        VALUE       DESCRIPTION OF MNEMONIC
#---------    -------------   ------------------------------
~OTHER INFORMATION
~ASCII Log data section
# ...
 2652.20    6.50   39.14   39.14 -999.25  20160112.230559   163.96    0.0000    0.0000    0.0000    0.0000    0.0000    0.0000    0.0000   28.845    0.00
 2652.40    8.08   25.00   25.00 -999.25  20160112.230736   178.59    0.0000    0.0000    0.0000    0.0000    0.0000    0.0000    0.0000   24.695    0.00
 2652.60    7.75   20.14   20.14 -999.25  20160112.230909   219.36    0.0000    0.0000    0.0000    0.0000    0.0000    0.0000    0.0000   23.386    0.00
 2652.80    6.42   20.00   20.00 -999.25  20160112.231026   201.48    0.0000    0.0000    0.0000    0.0000    0.0000    0.0000    0.0000   22.607    0.00
 2653.00    6.25   21.71   21.71 -999.25  20160112.231141   166.62    0.0000    0.0000    0.0000    0.0000    0.0000    0.0000    0.0000   22.390    0.00
 2653.20    6.63   20.00   20.00 -999.25  20160112.231301   165.45    0.0000    0.0000    0.0000    0.0000    0.0000    0.0000    0.0000   22.212    0.00
 2653.40    9.14   18.86   18.86 -999.25  20160112.231450   185.13    0.0000    0.0000    0.0000    0.0000    0.0000    0.0000    0.0000   22.035    0.00
 2653.60    8.92   23.43   23.43 -999.25  20160112.231637   253.74    0.0000    0.0000    0.0000    0.0000    0.0000    0.0000    0.0000   22.800    0.00
 2653.80   11.00   33.00   33.00 -999.25  20160112.231849   255.23    0.0000    0.0000    0.0000    0.0000    0.0000    0.0000    0.0000   23.540    0.00
 2654.00   14.17   47.43   47.43 -999.25  20160112.232139   322.99    0.0000    0.0000    0.0000    0.0000    0.0000    0.0000    0.0000   26.463    0.00
 2654.20    9.42   58.71   58.71 -999.25  20160112.232332   394.97    0.0000    0.0000    0.0000    0.0000    0.0000    0.0000    0.0000   31.629    0.00
 2654.40    8.83   64.04   64.04 -999.25  20160112.232518   260.91    0.0000    0.0000    0.0000    0.0000    0.0000    0.0000    0.0000   33.467    0.00
 2654.60    9.75   69.87   69.87 -999.25  20160112.232715   248.53    0.0000    0.0000    0.0000    0.0000    0.0000    0.0000    0.0000   33.662    0.00
 2654.80   10.50   76.00   76.00 -999.25  20160112.232921   277.29    0.0000    0.0000    0.0000    0.0000    0.0000    0.0000    0.0000   34.195    0.00
 2655.00   10.92   83.71   83.71 -999.25  20160112.233132   299.61    0.0000    0.0000    0.0000    0.0000    0.0000    0.0000    0.0000   33.594    0.00
 2655.20    8.67   85.00   85.00 -999.25  20160112.233316   300.86    0.0000    0.0000    0.0000    0.0000    0.0000    0.0000    0.0000   31.716    0.00
 2655.40    8.75   83.25   83.25 -999.25  20160112.233501   240.14    0.0000    0.0000    0.0000    0.0000    0.0000    0.0000    0.0000   31.234    0.00
 2655.60   10.58   77.14   77.14 -999.25  20160112.233708   249.31    0.0000    0.0000    0.0000    0.0000    0.0000    0.0000    0.0000   30.871    0.00
 2655.80   11.42   76.29   76.29 -999.25  20160112.233925   303.94    0.0000    0.0000    0.0000    0.0000    0.0000    0.0000    0.0000   31.594    0.00
 2656.00    9.33   74.86   74.86 -999.25  20160112.234117   318.29    0.0000    0.0000    0.0000    0.0000    0.0000    0.0000    0.0000   32.215    0.00
 2656.20   14.50   68.14   68.14 -999.25  20160112.234411   275.10    0.0000    0.0000    0.0000    0.0000    0.0000    0.0000    0.0000   30.704    0.00
 2656.40   13.58   59.57   59.57 -999.25  20160112.234654   423.19    0.0000    0.0000    0.0000    0.0000    0.0000    0.0000    0.0000   34.261    0.00
 2656.60   22.37   53.86   53.86 -999.25  20160112.235125   412.59    0.0000    0.0000    0.0000    0.0000    0.0000    0.0000    0.0000   36.241    0.00
 2656.80   22.63   49.57   49.57 -999.25  20160112.235554   676.78    0.0000    0.0000    0.0000    0.0000    0.0000    0.0000    0.0000   43.894    0.00
 2657.00   19.50   65.00   65.00 -999.25  20160112.235948   678.67    0.0000    0.0000    0.0000    0.0000    0.0000    0.0000    0.0000   51.371    0.00
 2657.20    8.08   67.00   67.00 -999.25  20160113.000125   529.22    0.0000    0.0000    0.0000    0.0000    0.0000    0.0000    0.0000   58.872    0.00
 2657.40    9.92   66.63   66.63 -999.25  20160113.000324   228.07    0.0000    0.0000    0.0000    0.0000    0.0000    0.0000    0.0000   54.926    0.00
 2657.60    9.33   58.50   58.50 -999.25  20160113.000516   277.07    0.0000    0.0000    0.0000    0.0000    0.0000    0.0000    0.0000   52.478    0.00
 2657.80    9.83   61.75   61.75 -999.25  20160113.000714   224.37    0.0000    0.0000    0.0000    0.0000    0.0000    0.0000    0.0000   43.979    0.00
 2658.00   10.67   63.43   63.43 -999.25  20160113.000922   236.67    0.0000    0.0000    0.0000    0.0000    0.0000    0.0000    0.0000   35.845    0.00
 2658.20   11.08   73.00   73.00 -999.25  20160113.001135   258.13    0.0000    0.0000    0.0000    0.0000    0.0000    0.0000    0.0000   30.228    0.00
 2658.40   10.17   65.14   65.14 -999.25  20160113.001337   264.55    0.0000    0.0000    0.0000    0.0000    0.0000    0.0000    0.0000   32.225    0.00
 2658.60    8.25   58.29   58.29 -999.25  20160113.001516   233.14    0.0000    0.0000    0.0000    0.0000    0.0000    0.0000    0.0000   32.542    0.00
 2658.80    7.75   38.71   38.71 -999.25  20160113.001649   187.96    0.0000    0.0000    0.0000    0.0000    0.0000    0.0000    0.0000   32.005    0.00
 2659.00    8.42   40.29   40.29 -999.25  20160113.001830   179.36    0.0000    0.0000    0.0000    0.0000    0.0000    0.0000    0.0000   30.581    0.00
 2659.20    8.67   43.43   43.43 -999.25  20160113.002014   196.00    0.0000    0.0000    0.0000    0.0000    0.0000    0.0000    0.0000   29.273    0.00
 2659.40   16.92   50.86   50.86 -999.25  20160113.004005   176.93    0.0000    0.0000    0.0000    0.0000    0.0000    0.0000    0.0000   16.250    0.00
 2659.60    7.25   53.86   53.86 -999.25  20160113.004132   398.43    0.0000    0.0000    0.0000    0.0000    0.0000    0.0000    0.0000    0.770    0.00
 2659.80    7.25   52.71   52.71 -999.25  20160113.004259   215.84    0.0000    0.0000    0.0000    0.0000    0.0000    0.0000    0.0000    0.758    0.00
 2660.00    9.50   47.00   47.00 -999.25  20160113.004453   243.45    0.0000    0.0000    0.0000    0.0000    0.0000    0.0000    0.0000    0.752    0.00
 2660.20   17.83   45.50   45.50 -999.25  20160113.004827   323.25    0.0000    0.0000    0.0000    0.0000    0.0000    0.0000    0.0000    0.769    0.00
 2660.40   13.00   44.38   44.38 -999.25  20160113.005103   585.57    0.0000    0.0000    0.0000    0.0000    0.0000    0.0000    0.0000    0.907    0.00
 2660.60    6.58   42.86   42.86 -999.25  20160113.005222   448.26    0.0000    0.0000    0.0000    0.0000    0.0000    0.0000    0.0000    0.849    0.00
 2660.80    6.08   60.86   60.86 -999.25  20160113.005335   245.86    0.0000    0.0000    0.0000    0.0000    0.0000    0.0000    0.0000    0.840    0.00
 2661.00    7.42   55.71   55.71 -999.25  20160113.005504   234.70    0.0000    0.0000    0.0000    0.0000    0.0000    0.0000    0.0000    1.207    0.00
 2661.20   10.17   71.71   71.71 -999.25  20160113.005706   284.28    0.0000    0.0000    0.0000    0.0000    0.0000    0.0000    0.0000    1.226    0.00
 2661.40    8.25   81.71   81.71 -999.25  20160113.005845   370.08    0.0000    0.0000    0.0000    0.0000    0.0000    0.0000    0.0000    1.126    0.00
 2661.60    7.08   79.43   79.43 -999.25  20160113.010011   297.66    0.0000    0.0000    0.0000    0.0000    0.0000    0.0000    0.0000    0.725    0.00
 2661.80   16.79   81.00   81.00 -999.25  20160113.010705   198.87    0.0000    0.0000    0.0000    0.0000    0.0000    0.0000    0.0000    0.078    0.00
 2662.00    5.92   50.29   50.29 -999.25  20160113.010816   429.99    0.0000    0.0000    0.0000    0.0000    0.0000    0.0000    0.0000    0.090    0.00
 2662.20    5.42   41.43   41.43 -999.25  20160113.010921   183.82    0.0000    0.0000    0.0000    0.0000    0.0000    0.0000    0.0000    0.090    0.00
 2662.40    7.75   39.75   39.75 -999.25  20160113.011054   186.44    0.0000    0.0000    0.0000    0.0000    0.0000    0.0000    0.0000    0.124    0.00
