~VERSION INFORMATION
#
#File created by GEO-data Geological Wellsite Services GmbH.
#Parts or all of this file may be confidential.
#
# This is a "LAS" file containing logging data in ascii form.
#
 VERS.        2.0             :CWLS LOG ASCII STANDARD - VERSION 2.0
 WRAP.        NO              :Single line per depth step
~WELL INFORMATION
#MNEM.UNIT        DATA              DESCRIPTION OF MNEMONIC
#---------    -------------         ------------------------
 STRT.M       0.20            :Start DEPTH
 STOP.M       3038.00         :End DEPTH
 STEP.M       0.20            :DEPTH step
 NULL.        -999.25         :NULL VALUE
 COMP.        CLG             :COMPANY
 WELL.        Cal-GT-04       :WELL
 FLD .        Californie      :FIELD
 LOC .        Californie      :LOCATION
 PROV.        <no data>       :PROVINCE
 CNTY.        <no data>       :COUNTY
 STAT.        Niederlande     :STATE
 CTRY.        Niederlande     :COUNTRY
 SRVC.        GEO-data        :SERVICE COMPANY
 DATE.        08.02.2016      :DATE
 UWI .        {ADF187BD-5224-4002-B869-0B87FE3BAB56}:UNIQUE WELL ID
 API .        <no data>       :API NUMBER
 LBEG.        No ID entered   :(LBEG) well code
~CURVE INFORMATION
#MNEM.UNIT      API CODE      CURVE DESCRIPTION
#---------    -------------   ------------------------------
 DEPTH.M                      :depth
 ROP_2DM.MINPERM              :rop_2dm
 GAMMARAY_1.API               :gammaray_1
 GAMMARAY_2.API               :gammaray_2
 GAMMARAY_3.API               :gammaray_3
 CLOCKDATE.                   :Date/Time
 SPECIFICENERGY.KPSI          :specificenergy
 C1_HIRES.VOLPERCENT          :c1_hires
 C2_HIRES.VOLPERCENT          :c2_hires
 C3_HIRES.VOLPERCENT          :c3_hires
 NC4_HIRES.VOLPERCENT         :nc4_hires
 IC4_HIRES.VOLPERCENT         :ic4_hires
 NC5_HIRES.VOLPERCENT         :nc5_hires
 IC5_HIRES.VOLPERCENT         :ic5_hires
 MSE .KBAR                    :mse
 CTOTAL_HIRES.VOLPERCENT      :ctotal_hires
~PARAMETER INFORMATION
#MNEM.UNIT        VALUE       DESCRIPTION OF MNEMONIC
#---------    -------------   ------------------------------
~OTHER INFORMATION
~ASCII Log data section
# ...
 2277.80    9.00   22.13   22.13 -999.25  20160104.105623   137.88    0.0000    0.0000    0.0000    0.0000    0.0000    0.0000    0.0000   24.844    0.02
 2278.00    7.08   22.50   22.50 -999.25  20160104.105748   158.01    0.0000    0.0000    0.0000    0.0000    0.0000    0.0000    0.0000   25.282    0.02
 2278.20    4.33   22.13   22.13 -999.25  20160104.105840    96.90    0.0000    0.0000    0.0000    0.0000    0.0000    0.0000    0.0000   24.369    0.02
 2278.40    6.26   22.00   22.00 -999.25  20160104.105956    73.81    0.0000    0.0000    0.0000    0.0000    0.0000    0.0000    0.0000   21.144    0.02
 2278.60    8.10   24.41   24.41 -999.25  20160104.110132   115.44    0.0000    0.0000    0.0000    0.0000    0.0000    0.0000    0.0000   19.183    0.02
 2278.80   10.33   27.00   27.00 -999.25  20160104.110336   159.65    0.0000    0.0000    0.0000    0.0000    0.0000    0.0000    0.0000   19.424    0.02
 2279.00   11.83   30.71   30.71 -999.25  20160104.110558   208.46    0.0000    0.0000    0.0000    0.0000    0.0000    0.0000    0.0000   20.179    0.02
 2279.20   11.17   30.29   30.29 -999.25  20160104.110812   235.14    0.0000    0.0000    0.0000    0.0000    0.0000    0.0000    0.0000   22.921    0.02
 2279.40   11.74   28.57   28.57 -999.25  20160104.111032   224.84    0.0000    0.0000    0.0000    0.0000    0.0000    0.0000    0.0000   26.694    0.01
 2279.60   14.32   29.00   29.00 -999.25  20160104.111325   244.61    0.0000    0.0000    0.0000    0.0000    0.0000    0.0000    0.0000   29.862    0.01
 2279.80   12.67   28.17   28.17 -999.25  20160104.111557   288.94    0.0000    0.0000    0.0000    0.0000    0.0000    0.0000    0.0000   33.545    0.01
 2280.00   11.50   30.33   30.33 -999.25  20160104.111815   249.77    0.0000    0.0000    0.0000    0.0000    0.0000    0.0000    0.0000   35.317    0.01
 2280.20   11.49   32.67   32.67 -999.25  20160104.112032   227.60    0.0000    0.0000    0.0000    0.0000    0.0000    0.0000    0.0000   35.128    0.01
 2280.40   12.17   37.60   37.60 -999.25  20160104.112259   230.52    0.0000    0.0000    0.0000    0.0000    0.0000    0.0000    0.0000   35.354    0.02
 2280.60   11.42   38.80   38.80 -999.25  20160104.112516   239.83    0.0000    0.0000    0.0000    0.0000    0.0000    0.0000    0.0000   35.708    0.02
 2280.80   11.67   37.87   37.87 -999.25  20160104.112736   226.71    0.0000    0.0000    0.0000    0.0000    0.0000    0.0000    0.0000   33.985    0.02
 2281.00   13.17   32.20   32.20 -999.25  20160104.113014   236.81    0.0000    0.0000    0.0000    0.0000    0.0000    0.0000    0.0000   33.286    0.02
 2281.20   11.00   29.43   29.43 -999.25  20160104.113226   257.85    0.0000    0.0000    0.0000    0.0000    0.0000    0.0000    0.0000   34.526    0.02
 2281.40    9.33   27.29   27.29 -999.25  20160104.113418   206.74    0.0000    0.0000    0.0000    0.0000    0.0000    0.0000    0.0000   33.975    0.02
 2281.60    7.92   25.86   25.86 -999.25  20160104.113553   166.49    0.0000    0.0000    0.0000    0.0000    0.0000    0.0000    0.0000   32.336    0.02
 2281.80    8.08   27.29   27.29 -999.25  20160104.113730   143.32    0.0000    0.0000    0.0000    0.0000    0.0000    0.0000    0.0000   30.754    0.02
 2282.00    8.47   28.57   28.57 -999.25  20160104.113911   148.52    0.0000    0.0000    0.0000    0.0000    0.0000    0.0000    0.0000   28.540    0.02
 2282.20    9.11   27.50   27.50 -999.25  20160104.114101   159.28    0.0000    0.0000    0.0000    0.0000    0.0000    0.0000    0.0000   25.730    0.02
 2282.40   10.17   27.25   27.25 -999.25  20160104.114303   176.39    0.0000    0.0000    0.0000    0.0000    0.0000    0.0000    0.0000   24.518    0.02
 2282.60    9.92   26.65   26.65 -999.25  20160104.114502   195.02    0.0000    0.0000    0.0000    0.0000    0.0000    0.0000    0.0000   24.896    0.02
 2282.80   11.17   28.71   28.71 -999.25  20160104.114716   195.38    0.0000    0.0000    0.0000    0.0000    0.0000    0.0000    0.0000   25.960    0.00
 2283.00   12.25   28.50   28.50 -999.25  20160104.114943   224.25    0.0000    0.0000    0.0000    0.0000    0.0000    0.0000    0.0000   27.756    0.00
 2283.20   11.17   33.00   33.00 -999.25  20160104.115157   241.27    0.0000    0.0000    0.0000    0.0000    0.0000    0.0000    0.0000   29.906    0.00
 2283.40   11.92   35.33   35.33 -999.25  20160104.115420   223.37    0.0000    0.0000    0.0000    0.0000    0.0000    0.0000    0.0000   31.197    0.00
 2283.60   12.33   37.50   37.50 -999.25  20160104.115648   239.01    0.0000    0.0000    0.0000    0.0000    0.0000    0.0000    0.0000   32.313    0.00
 2283.80    8.83   35.50   35.50 -999.25  20160104.115834   228.86    0.0000    0.0000    0.0000    0.0000    0.0000    0.0000    0.0000   34.072    0.00
 2284.00    8.58   32.00   32.00 -999.25  20160104.120017   162.86    0.0000    0.0000    0.0000    0.0000    0.0000    0.0000    0.0000   33.195    0.00
 2284.20    8.14   29.57   29.57 -999.25  20160104.120154   155.71    0.0000    0.0000    0.0000    0.0000    0.0000    0.0000    0.0000   30.878    0.01
 2284.40    8.53   26.50   26.50 -999.25  20160104.120337   149.90    0.0000    0.0000    0.0000    0.0000    0.0000    0.0000    0.0000   28.649    0.01
 2284.60    8.11   27.57   27.57 -999.25  20160104.120514   153.88    0.0000    0.0000    0.0000    0.0000    0.0000    0.0000    0.0000   26.816    0.01
 2284.80   15.38   25.43   25.43 -999.25  20160104.124955   126.06    0.0000    0.0000    0.0000    0.0000    0.0000    0.0000    0.0000   24.747    0.02
 2285.00    7.45   27.00   27.00 -999.25  20160104.125123   260.97    0.0000    0.0000    0.0000    0.0000    0.0000    0.0000    0.0000   28.422    0.01
 2285.20    5.33   28.50   28.50 -999.25  20160104.125227   145.28    0.0000    0.0000    0.0000    0.0000    0.0000    0.0000    0.0000   27.334    0.01
 2285.40    5.25   30.50   30.50 -999.25  20160104.125330   111.75    0.0000    0.0000    0.0000    0.0000    0.0000    0.0000    0.0000   25.422    0.01
 2285.60    5.58   34.50   34.50 -999.25  20160104.125437   122.03    0.0000    0.0000    0.0000    0.0000    0.0000    0.0000    0.0000   23.299    0.01
 2285.80    4.83   37.50   37.50 -999.25  20160104.125535   125.64    0.0000    0.0000    0.0000    0.0000    0.0000    0.0000    0.0000   22.013    0.01
 2286.00    4.83   36.67   36.67 -999.25  20160104.125633   110.73    0.0000    0.0000    0.0000    0.0000    0.0000    0.0000    0.0000   16.205    0.01
 2286.20    6.67   35.25   35.25 -999.25  20160104.130244   113.61    0.0000    0.0000    0.0000    0.0000    0.0000    0.0000    0.0000   14.714    0.01
 2286.40    3.92   37.50   37.50 -999.25  20160104.130331   143.71    0.0000    0.0000    0.0000    0.0000    0.0000    0.0000    0.0000   15.430    0.01
 2286.60    5.42   41.00   41.00 -999.25  20160104.130436    99.94    0.0000    0.0000    0.0000    0.0000    0.0000    0.0000    0.0000   14.388    0.01
 2286.80    8.08   41.86   41.86 -999.25  20160104.130613   137.87    0.0000    0.0000    0.0000    0.0000    0.0000    0.0000    0.0000   14.371    0.01
 2287.00    9.53   41.29   41.29 -999.25  20160104.130807   211.67    0.0000    0.0000    0.0000    0.0000    0.0000    0.0000    0.0000   16.169    0.01
 2287.20    8.31   38.00   38.00 -999.25  20160104.130947   242.07    0.0000    0.0000    0.0000    0.0000    0.0000    0.0000    0.0000   19.035    0.01
 2287.40    8.02   34.71   34.71 -999.25  20160104.131123   209.71    0.0000    0.0000    0.0000    0.0000    0.0000    0.0000    0.0000   19.883    0.01
 2287.60    5.82   33.57   33.57 -999.25  20160104.131233   186.04    0.0000    0.0000    0.0000    0.0000    0.0000    0.0000    0.0000   22.333    0.01
 2287.80    5.75   30.83   30.83 -999.25  20160104.131342   135.40    0.0000    0.0000    0.0000    0.0000    0.0000    0.0000    0.0000   22.436    0.01
 2288.00    7.17   29.00   29.00 -999.25  20160104.131508   142.26    0.0000    0.0000    0.0000    0.0000    0.0000    0.0000    0.0000   21.108    0.01
